stop_id,stop_code,stop_name,stop_desc,stop_lat,stop_lon,zone_id,stop_url,location_type,parent_station
761000397,,Elefantapoteket,,59.4368660,10.6681360,,,0,
761000399,,Peterson,,59.4400180,10.6694900,,,0,
761000566,,Sarpsborg Quality Hotel,,59.2962910,11.0676400,,,0,
761001666,,Herføl brygge,,59.0019990,11.0568330,,,0,
761001717,,Gravningsund brygge,,59.0242740,11.1000670,,,0,
761002517,,Fylkestøtta,,59.6380160,10.9334470,,,0,
761005286,,Lysaker E18 nordsiden,,59.9130210,10.6374930,,,0,
761005287,,Lysaker E18 sydsiden,,59.9127620,10.6383210,,,0,
761005645,,Holmen i Fjekan,,59.8564380,10.4918050,,,0,
761005646,,Holmen i Slemmestadvn.,,59.8539120,10.4912630,,,0,
761005865,,Asker Hagaløkka,,59.8334470,10.4245020,,,0,
761008829,,Oslo Lufthavn jb.st,,60.1928370,11.0966820,,,0,
761008845,,Oslo Lufthavn avgang,,60.1934590,11.0968540,,,0,
761008847,,Oslo Lufthavn ankomst,,60.1928710,11.1010380,,,0,
761012327,,Oslo Bussterminal,,59.9116770,10.7588530,,,0,
761012365,,Oslo Hjortneskaien,,59.9097130,10.7088330,,,0,
761012841,,Grefsen stasjon vognhall,,59.9424710,10.7822620,,,0,
761013720,,Skogen T-banestasjon,,59.9754870,10.6474300,,,0,
761014495,,Austmarka skole,,60.1017340,12.3243540,,,0,
761014497,,Kjærsagbrua,,60.1034620,12.3163750,,,0,
761014499,,Austmarka samfunnshus,,60.0954130,12.3037420,,,0,
761014500,,Austbo,,60.1035270,12.3203050,,,0,
761014501,,Grorud Austmarka,,60.0602910,12.2846970,,,0,
761014502,,Austmarka S-lag,,60.1036610,12.3250170,,,0,
761014503,,Gylterud,,60.0604670,12.3447360,,,0,
761014504,,Karterud,,60.0636860,12.3672110,,,0,
761014505,,Strand,,60.0728110,12.3502310,,,0,
761014506,,Åserud,,60.0795670,12.3410790,,,0,
761014507,,Åsheim,,60.0839390,12.3344700,,,0,
761014508,,Jensmoen,,60.0937160,12.3277570,,,0,
761014509,,Solberg bru,,60.1203920,12.3172680,,,0,
761014510,,Jonsrud,,60.1265220,12.3146620,,,0,
761014511,,Holmenlia,,60.1007270,12.3112040,,,0,
761014512,,Brødbøl,,60.0462880,12.3715650,,,0,
761014513,,Utgård,,60.0358730,12.3707900,,,0,
761014514,,Mobekk Brødbøl,,60.0550730,12.3709710,,,0,
761014515,,Fosseidvegen,,60.3424570,12.0155540,,,0,
761014516,,Foss Landhandel,,60.3338890,12.0078390,,,0,
761014517,,Gruvåsvegen,,60.3542210,12.0159160,,,0,
761014518,,Ramsøya,,60.3603290,12.0202710,,,0,
761014520,,Masterudkrysset,,60.1468810,12.3141540,,,0,
761014521,,Masterud,,60.1489220,12.2985880,,,0,
761014522,,Brakalsvålet,,60.1663700,12.1493270,,,0,
761014523,,Tekstebakken,,60.1633640,12.1900420,,,0,
761014524,,Knauserud,,60.1578940,12.2281470,,,0,
761014525,,Bratberget,,60.1595080,12.2485340,,,0,
761014526,,Tomteberget,,60.1541100,12.2684620,,,0,
761014527,,Ramtjernåsen,,60.1523090,12.2834420,,,0,
761014528,,Roverud skole,,60.2586940,12.0616000,,,0,
761014530,,Erling Maulands veg 53,,60.2440150,12.0533060,,,0,
761014531,,Erling Maulands veg 25,,60.2504770,12.0508890,,,0,
761014532,,Vepsveien 12,,60.2442860,12.0516680,,,0,
761014533,,Vepsveien 24,,60.2444880,12.0498800,,,0,
761014534,,Vepsveien 74,,60.2429310,12.0515790,,,0,
761014535,,Roverud skole Fv 205,,60.2555050,12.0674670,,,0,
761014536,,Roverud kapell,,60.2531360,12.0572290,,,0,
761014537,,Roverud,,60.2548370,12.0524160,,,0,
761014538,,Årbogen,,60.2730060,12.0899660,,,0,
761014539,,Brudal,,60.2689440,12.0827630,,,0,
761014540,,Lystadtjernsvegen,,60.2474980,12.1014430,,,0,
761014541,,Søndre Rustad,,60.2284470,12.0311350,,,0,
761014542,,Nordre Rustad,,60.2425580,12.0384580,,,0,
761014543,,Brøderudkrysset,,60.2392960,12.0852870,,,0,
761014544,,Kolomoen,,60.2407260,12.1051580,,,0,
761014545,,Solør-Odal forsøksring,,60.2535820,12.0910260,,,0,
761014546,,Bergerud,,60.2603680,12.0773620,,,0,
761014547,,Bergervegen,,60.2677230,12.0546300,,,0,
761014548,,Bergkvist,,60.2769170,12.0298510,,,0,
761014549,,Roverudhjemmet,,60.2530630,12.0517080,,,0,
761014551,,Vangen,,60.2053570,11.9735800,,,0,
761014556,,Hov,,60.1983570,12.0299450,,,0,
761014558,,Holt sykehjem,,60.1834870,12.0105700,,,0,
761014559,,Holt ungdomsskole,,60.1813700,12.0128290,,,0,
761014561,,Teknisk etat,,60.1704710,12.0175470,,,0,
761014564,,Bokfinkvegen sør,,60.1738750,12.0274540,,,0,
761014565,,Bokfinkvegen nord,,60.1810490,12.0237310,,,0,
761014566,,Skinntrytesvingen,,60.1809500,12.0375220,,,0,
761014568,,Vinger Hotell,,60.1865880,12.0121890,,,0,
761014574,,Snøhvitvegen,,60.2073860,11.9712730,,,0,
761014575,,Bogeråsen,,60.2066690,11.9812100,,,0,
761014581,,Langelandshjemmet,,60.2003630,11.9859620,,,0,
761014582,,Langeland skole,,60.1991620,11.9925130,,,0,
761014584,,Øvre Skogveg,,60.2050670,12.0131070,,,0,
761014589,,Taverna,,60.1937750,11.9927440,,,0,
761014591,,Bilsenteret,,60.1715140,12.0258120,,,0,
761014593,,Glåmlia,,60.2028540,12.0163890,,,0,
761014597,,Lyngvegen,,60.2015650,11.9991040,,,0,
761014601,,Øvre Langelandsveg,,60.2024880,11.9808850,,,0,
761014602,,Nor Vingersjøvegen,,60.1870770,12.0187110,,,0,
761014611,,Industribyggene,,60.2014580,11.9791130,,,0,
761014612,,E. Kjernsli,,60.1040460,12.3386450,,,0,
761014619,,Øvrebyen vgs.,,60.1954200,12.0085950,,,0,
761014623,,Granvegen,,60.2031060,12.0139570,,,0,
761014630,,Marikollen sk.,,60.1916240,11.9706590,,,0,
761014631,,Øvre Badstuvegen,,60.1881330,11.9812410,,,0,
761014633,,Telenor,,60.1755560,12.0186810,,,0,
761014635,,Kurudsand Rema 1000,,60.1892510,11.9873340,,,0,
761014638,,Vingersjøvegen,,60.1867750,12.0212100,,,0,
761014639,,Blomstervegen 24,,60.1840170,11.9920360,,,0,
761014640,,Blomstervegen 52,,60.1820980,11.9937550,,,0,
761014641,,Blomstervegen 59,,60.1817780,11.9919770,,,0,
761014642,,Blomstervegen 72,,60.1833190,11.9902760,,,0,
761014643,,Kløverbakken,,60.1859320,11.9874830,,,0,
761014645,,Bregnevegen,,60.1803090,11.9906520,,,0,
761014646,,Guldbækåsen,,60.2099570,11.9752970,,,0,
761014647,,Langvenna,,60.2108040,11.9731350,,,0,
761014651,,Posten Rasta,,60.1715430,12.0175010,,,0,
761014653,,Skrivervegen 25,,60.2003170,11.9931770,,,0,
761014655,,Langerudberget,,60.1823500,12.0325110,,,0,
761014656,,Orrevegen,,60.1812630,12.0290000,,,0,
761014657,,Toresheimvegen 29,,60.2026250,11.9928280,,,0,
761014658,,Utsiktsvegen 107,,60.1831020,11.9847550,,,0,
761014659,,Hestehovvegen,,60.1799890,11.9928780,,,0,
761014660,,Høgspentvegen,,60.1826290,11.9977720,,,0,
761014661,,Jernbanegata 58,,60.1879580,11.9957320,,,0,
761014662,,Chr. Engs veg,,60.1851010,11.9976910,,,0,
761014663,,Vollgata/Granvegen,,60.2032010,12.0098130,,,0,
761014664,,Vennersberg,,60.1765020,12.0252790,,,0,
761014665,,Vennersberg II,,60.1790390,12.0235640,,,0,
761014666,,Vardåsvegen,,60.1969830,11.9983060,,,0,
761014669,,Utsiktsvegen 121,,60.1843570,11.9809170,,,0,
761014671,,Bekkefaret,,60.2019200,11.9838650,,,0,
761014673,,Kongsvinger tekniske fagskole,,60.1736830,12.0172820,,,0,
761014674,,Valhallvegen,,60.1986010,11.9828050,,,0,
761014675,,Bukkene Bruses vei,,60.2077060,11.9746780,,,0,
761014676,,Kongsvinger gjestegård,,60.2086910,11.9668050,,,0,
761014678,,Kongsvinger rådhus,,60.1913220,11.9986920,,,0,
761014679,,Kongsvinger sykehus,,60.1949080,11.9955010,,,0,
761014681,,Kongsvinger storhall,,60.1908190,12.0073800,,,0,
761014682,,Kirketorget,,60.1946980,12.0086560,,,0,
761014683,,Sparebanken Hedmark Storgt.,,60.1909220,11.9981150,,,0,
761014687,,Gaupevegen,,60.1720120,12.0232970,,,0,
761014688,,Rastavegen,,60.1791000,12.0198000,,,0,
761014689,,Tajevegen,,60.1852040,12.0109970,,,0,
761014690,,Raavegen,,60.1773950,12.0158010,,,0,
761014691,,Tajevegen 38,,60.1790770,12.0145300,,,0,
761014695,,Brandval,,60.3175320,12.0140690,,,0,
761014696,,Mo,,60.3041230,12.0082700,,,0,
761014698,,Brandval sagbruk,,60.3243900,12.0185980,,,0,
761014699,,Brandval rv. 20,,60.3168640,12.0188440,,,0,
761014700,,Brandval skole,,60.3209080,12.0069890,,,0,
761014701,,Ringshella,,60.2998050,11.9973350,,,0,
761014702,,Bjørnstad,,60.3080250,12.0000990,,,0,
761014703,,Agnå bru,,60.3148310,11.9996010,,,0,
761014704,,Årnes,,60.3228420,12.0037970,,,0,
761014710,,Kjerret riksgrensen,,60.0045810,12.3671360,,,0,
761014712,,Sætra,,59.9929350,12.3494110,,,0,
761014713,,Haugsveen,,60.0212140,12.3640710,,,0,
761014715,,Nordre Gjølstad,,60.2732810,12.0174470,,,0,
761014716,,Søndre Gjølstad,,60.2683260,12.0248410,,,0,
761014717,,Bånerud,,60.2809450,12.0045290,,,0,
761014718,,Furderudvegen,,60.2903520,11.9973200,,,0,
761014719,,Li,,60.2958790,11.9944060,,,0,
761014722,,Skansgården,,60.1873470,12.0663880,,,0,
761014723,,Gjøsegarden,,60.1914330,12.0619140,,,0,
761014724,,Overud,,60.1828690,12.0693250,,,0,
761014725,,Løvenskjold,,60.1810190,12.0684490,,,0,
761014726,,Kabberud,,60.1659240,12.0641740,,,0,
761014727,,Fiskegarden,,60.1610790,12.0596110,,,0,
761014728,,Skinnarbølkrysset,,60.1791610,12.0850160,,,0,
761014729,,Mobekk Skinnarbøl,,60.1816370,12.0998610,,,0,
761014730,,Geitdansen,,60.1862600,12.0968330,,,0,
761014731,,Smestadbrakka,,60.1932110,12.1016750,,,0,
761014732,,Smestadtjernet,,60.1987760,12.1027600,,,0,
761014733,,Tjernsby,,60.2031750,12.1028520,,,0,
761014734,,Mellem,,60.2155190,12.1029530,,,0,
761014735,,Sønsterud,,60.2169300,12.1013710,,,0,
761014736,,Rønningskrysset,,60.2310100,12.0915000,,,0,
761014737,,Snarebrua,,60.1291730,12.1014780,,,0,
761014738,,Gjems,,60.1495060,12.0568950,,,0,
761014739,,Lierfløyta,,60.1350780,12.0617170,,,0,
761014740,,Granli stasjon,,60.1464120,12.0561220,,,0,
761014741,,Lokalet,,60.1381420,12.0729730,,,0,
761014742,,Granlikrysset,,60.1435970,12.0558420,,,0,
761014743,,Kiosken,,60.1344110,12.0853610,,,0,
761014744,,Gjermshus,,60.1335600,12.0926490,,,0,
761014745,,Snaregrenda,,60.1248130,12.0950880,,,0,
761014746,,Sæter gård,,60.2177770,12.0160080,,,0,
761014747,,Leirrud,,60.2443540,12.0278700,,,0,
761014748,,Leirrud bru,,60.2372320,12.0234360,,,0,
761014749,,Rolstadmoen,,60.2597310,12.0300870,,,0,
761014750,,Hokåsen,,60.2792550,12.1136440,,,0,
761014751,,Nybrua,,60.2759090,12.1014930,,,0,
761014752,,Åflodammen,,60.2786410,12.1496650,,,0,
761014753,,Hokåsmovegen,,60.2778550,12.1250180,,,0,
761014754,,Skåre,,60.2887800,12.1047580,,,0,
761014755,,Sørroa,,60.2670900,12.1192880,,,0,
761014756,,Tangen,,60.2841030,12.1582630,,,0,
761014757,,Flygind,,60.2606430,12.1419310,,,0,
761014758,,Tollerud,,60.2660520,12.1351060,,,0,
761014759,,Hofoss,,60.2773860,12.1411490,,,0,
761014760,,Sjøenden,,60.0998340,12.0648860,,,0,
761014761,,Mensrudfeltet,,60.2115550,12.0456810,,,0,
761014762,,Svensrud,,60.2089880,12.0538210,,,0,
761014763,,Ridebobla,,60.2000430,12.0324480,,,0,
761014765,,Øyermoen,,60.2517780,12.4592880,,,0,
761014766,,Løvenskiold,,60.2536960,12.4282790,,,0,
761014767,,Solstad,,60.2501950,12.4423590,,,0,
761014768,,Gubbetjernsbrakka,,60.2623940,12.4085500,,,0,
761014769,,Fensjøvegen,,60.2760200,12.3668130,,,0,
761014770,,Bergsland,,60.2851910,12.3574750,,,0,
761014771,,Vestby,,60.3502850,11.9474450,,,0,
761014772,,Nesætervegen,,60.3511620,11.9553210,,,0,
761014773,,Vestroa Handel Holen,,60.3459510,11.9885540,,,0,
761014774,,Nordsetvegen,,60.3510740,11.9680250,,,0,
761014788,,Varaldskogen,,60.1519430,12.4439330,,,0,
761014789,,Lundeby,,60.1292720,12.4766740,,,0,
761014791,,Skogheim,,60.1170430,12.4516650,,,0,
761014792,,Kartbråten,,60.1177790,12.4329410,,,0,
761014793,,Åserudseter,,60.1107790,12.4218770,,,0,
761014794,,Larsmovangen,,60.1016810,12.4020510,,,0,
761014795,,Abortjern,,60.1065220,12.3826230,,,0,
761014796,,Holmby skole,,60.1223410,12.4195490,,,0,
761014797,,Steinbråten,,60.1308750,12.4236060,,,0,
761014798,,Bjørndalen,,60.1344450,12.4206440,,,0,
761014800,,Moen,,60.2982440,12.2749810,,,0,
761014801,,Nyhus,,60.3006250,12.2651330,,,0,
761014802,,Langåsen,,60.2957950,12.3199090,,,0,
761014803,,Bergeseter,,60.2921220,12.2231910,,,0,
761014804,,Lundersæter,,60.3034970,12.2575240,,,0,
761014805,,Lystad,,60.3411940,12.2961860,,,0,
761014807,,Solhaug,,60.3361020,12.2971410,,,0,
761014808,,Kaknesmyra,,60.2877850,12.1911070,,,0,
761014809,,Steinreien,,60.2982370,12.2386230,,,0,
761014810,,Digernessetra,,60.3118320,12.2686620,,,0,
761014811,,Gjersjøen,,60.3197140,12.2774950,,,0,
761014812,,Skolevegen,,60.2970580,12.2847660,,,0,
761014813,,Finnskogen montessoriskole,,60.2980610,12.2830200,,,0,
761014818,,Jammerdal,,60.5558130,12.0666890,,,0,
761014820,,Strengelsrud,,60.1218760,12.0510180,,,0,
761014822,,Mariåsen,,60.1335830,12.0326830,,,0,
761014823,,Pålsmoen,,60.1260220,12.0261880,,,0,
761014824,,Sigernes,,60.1144790,12.0370280,,,0,
761014825,,Holmen,,60.0991710,12.0353660,,,0,
761014826,,Holer,,60.1349370,12.0154250,,,0,
761014827,,Lierkrysset,,60.1451450,12.0335150,,,0,
761014828,,Tråssholmen,,60.1810490,12.3935770,,,0,
761014829,,Tussevangen,,60.1639210,12.3180350,,,0,
761014830,,E. Tangen,,60.1761470,12.3192870,,,0,
761014831,,Gunnarsbråten,,60.1859400,12.3269180,,,0,
761014832,,Femoen,,60.2016530,12.3503000,,,0,
761014833,,Øyersjøen,,60.2032700,12.4480530,,,0,
761014834,,Lauvhøgda,,60.2186510,12.4193770,,,0,
761014835,,Gressberget,,60.3593250,12.3470710,,,0,
761014836,,Nyheim,,60.3549650,12.3305710,,,0,
761014837,,Merratjernet,,60.3635940,12.3495240,,,0,
761014838,,Sandvika,,60.3689120,12.3534630,,,0,
761014839,,Digernes,,60.3045580,12.0723570,,,0,
761014840,,Digernesholtet,,60.3024980,12.0564830,,,0,
761014841,,Myrer,,60.3037340,12.0390530,,,0,
761014842,,Sander Brandval,,60.2950520,12.0816560,,,0,
761014843,,Siva,,60.2050170,11.9530960,,,0,
761014844,,Onstadvegen,,60.2025180,11.9624200,,,0,
761014847,,Moa,,60.1995240,11.9696050,,,0,
761014848,,Åsum sk.,,60.2003900,11.9132240,,,0,
761014849,,Sann,,60.2150000,11.9303400,,,0,
761014850,,Greåker,,60.2123600,11.9557980,,,0,
761014851,,Edsberg,,60.2350270,11.9053880,,,0,
761014852,,Nor vegkryss,,60.3489300,12.0564060,,,0,
761014853,,Nedre Våler,,60.3567730,12.0545110,,,0,
761014854,,Hanestadmoen,,60.3338620,12.0700390,,,0,
761014855,,Fjøser,,60.3331830,12.0267310,,,0,
761014856,,Gåsbu,,60.8989520,11.2093810,,,0,
761014859,,Midtstranda,,60.7985120,11.1101350,,,0,
761014862,,Lars Hollos gate,,60.7983970,11.0927040,,,0,
761014863,,Hempa,,60.8003080,11.0927920,,,0,
761014864,,Hvitveisen barnehage,,60.8024640,11.0892930,,,0,
761014865,,Casparis gate/Solvangvegen,,60.8024560,11.0829320,,,0,
761014872,,Posthuset,,60.7938350,11.0752060,,,0,
761014877,,Østregate 92,,60.7921300,11.0838980,,,0,
761014879,,Østregate 122,,60.7919350,11.0871000,,,0,
761014883,,Hamar Konfeksjon,,60.8022540,11.0470210,,,0,
761014884,,Storhamarsenteret,,60.8031350,11.0440440,,,0,
761014885,,Jønsrudløkka,,60.8025700,11.0398350,,,0,
761014888,,Nystuvegen,,60.8048020,11.0287090,,,0,
761014889,,Torps legesenter,,60.8037910,11.0268070,,,0,
761014893,,Aluvegen/Ringgata,,60.8045540,11.0627560,,,0,
761014894,,Lilleajervegen,,60.8074190,11.0592270,,,0,
761014896,,Holsvegen,,60.8152920,11.0466400,,,0,
761014900,,Utfarten,,60.8118130,11.0455540,,,0,
761014905,,Vognvegen 88,,60.8050610,11.0494610,,,0,
761014913,,Breidablikk Aluvegen,,60.8155060,11.0520600,,,0,
761014914,,Hybelhuset,,60.8011440,11.0749440,,,0,
761014916,,Maths Pedersens gate,,60.8082700,11.0798720,,,0,
761014917,,Nordahl Griegs gate 54,,60.8075980,11.0731920,,,0,
761014918,,Tommelstadvn blokkene,,60.8086400,11.0761090,,,0,
761014921,,Nordahl Griegs gate 20,,60.8068890,11.0645610,,,0,
761014924,,Solvang (Texaco),,60.8047370,11.0823450,,,0,
761014925,,Kjøpmann Sannerud,,60.8086510,11.0887960,,,0,
761014926,,Sundalskrysset,,60.8129730,11.0897030,,,0,
761014927,,Benterudbakken,,60.8204500,11.0855550,,,0,
761014928,,Stensby Norsvin,,60.8235210,11.0832170,,,0,
761014930,,Lottenvegen,,60.8135190,11.0796610,,,0,
761014933,,Gubbestua,,60.8216250,11.0453160,,,0,
761014934,,Urstad,,60.8540500,11.2394210,,,0,
761014935,,Furuberget barnehage,,60.8109860,11.0374110,,,0,
761014937,,Hamar OL Amfi,,60.8016620,11.0390980,,,0,
761014938,,Kornsiloen,,60.8030970,11.0347220,,,0,
761014939,,Snekkerstufeltet,,60.8090400,11.0263850,,,0,
761014942,,Volljordet,,60.8131710,11.0605900,,,0,
761014945,,Kvartal 48,,60.7936400,11.0720870,,,0,
761014946,,Bryggeriet,,60.7946240,11.0630730,,,0,
761014947,,Briskeby stadion,,60.7964590,11.0931470,,,0,
761014948,,Vestås skole,,60.8662760,11.1344060,,,0,
761014949,,Vien,,60.8122980,11.0944760,,,0,
761014952,,Oline Holtmons veg,,60.8073270,11.0280420,,,0,
761014953,,Skogbrynet,,60.8109130,11.0326810,,,0,
761014956,,Grytting,,60.8525090,11.2512250,,,0,
761014958,,Hårstad,,60.8464580,11.2454980,,,0,
761014959,,Østhagen,,60.8538510,11.2513930,,,0,
761014960,,Ajerhagan nedre,,60.8109400,11.0562530,,,0,
761014961,,Ajerhagan øvre,,60.8129350,11.0545620,,,0,
761014963,,Just Brochs gate,,60.7976650,11.1015150,,,0,
761014964,,Nordvikvegen,,60.7977750,11.0355050,,,0,
761014966,,Statens hus,,60.7933460,11.0789970,,,0,
761014967,,Øvre Heggelia,,60.8110080,11.0412190,,,0,
761014969,,Buevegen Smeby,,60.8163720,11.0859890,,,0,
761014970,,Solvangvegen,,60.8043750,11.0826340,,,0,
761014975,,Bellevue Aluvegen,,60.8092770,11.0571030,,,0,
761014976,,Bellevue Vognvegen,,60.8094710,11.0560860,,,0,
761014977,,Lottenvegen/Strømsvn.,,60.8146780,11.0823480,,,0,
761014978,,Løypevegen,,60.8069610,11.0698410,,,0,
761014979,,Furuberget Solheim,,60.8219830,11.0382580,,,0,
761014980,,Sonerud,,60.7984050,11.0436510,,,0,
761014982,,Sykehuset Skolegata,,60.7983250,11.0723170,,,0,
761014983,,Fjellhagestien,,60.7996980,11.0573160,,,0,
761014984,,Kristin Lavransdatters veg,,60.7986790,11.0505050,,,0,
761014985,,Kåtorp pensjonistsenter,,60.8131870,11.1446770,,,0,
761014986,,Jernbanemuséet,,60.8000140,11.0270460,,,0,
761014987,,Peder Olssøns veg,,60.8019910,11.1405280,,,0,
761014988,,Greveløkka,,60.8022190,11.0633590,,,0,
761014990,,CC stadion,,60.7959670,11.0814270,,,0,
761014991,,Utstillingsplassen,,60.7966880,11.0894310,,,0,
761014992,,Maxi,,60.7986980,11.0485940,,,0,
761014993,,Hamar vest,,60.8045580,11.0329580,,,0,
761014994,,Storhamar vgs.,,60.7974820,11.0389230,,,0,
761014995,,Ankerskogen vgs.,,60.8042950,11.0749080,,,0,
761014997,,Hamar Katedralskole,,60.8048290,11.0548320,,,0,
761014998,,Furuberget,,60.8115430,11.0268190,,,0,
761014999,,Klukstuen,,60.8112030,11.0805780,,,0,
761015002,,Hamar skysstasjon,,60.7913250,11.0802610,,,0,
761015003,,Børstad,,60.8032190,11.0858320,,,0,
761015005,,Espern,,60.7895810,11.0929920,,,0,
761015006,,Smeby,,60.8153610,11.0876880,,,0,
761015007,,Campus Hamar,,60.7961310,11.0725980,,,0,
761015008,,Midtbyen Park,,60.7957190,11.0708440,,,0,
761015011,,Bays gate,,60.7960970,11.0602820,,,0,
761015012,,Ormseter,,60.8874590,11.1938780,,,0,
761015015,,Fredtun,,60.8190120,11.0534620,,,0,
761015016,,Hedmarktoppen,,60.8201520,11.0493600,,,0,
761015017,,Rønningen,,60.8757630,11.2279890,,,0,
761015018,,Syljuset,,60.8768880,11.1605780,,,0,
761015019,,Tomterødegården,,60.8802300,11.1771480,,,0,
761015020,,Dufset,,60.8762210,11.1478200,,,0,
761015021,,Torvet,,60.8762700,11.1672050,,,0,
761015022,,Folkets hus,,60.7959060,11.0678970,,,0,
761015023,,Vik matsenter,,60.8455090,11.2003530,,,0,
761015024,,Østås,,60.8703690,11.2259560,,,0,
761015025,,Hanumskrysset,,60.7968140,11.1897500,,,0,
761015027,,Lageråen,,60.8260570,11.2322020,,,0,
761015028,,Løvås,,60.8244250,11.2213820,,,0,
761015030,,Spaberg Vang Auto,,60.8272820,11.2546020,,,0,
761015031,,Torshov,,60.8054580,11.1494000,,,0,
761015032,,Kays Gartneri,,60.8072550,11.1573150,,,0,
761015034,,Ridabu sk.,,60.8017650,11.1353470,,,0,
761015035,,Ener u.sk.,,60.8057060,11.1264000,,,0,
761015036,,Vang brænderi,,60.8078120,11.1460280,,,0,
761015038,,Snippen,,60.8607520,11.1351600,,,0,
761015039,,Nilsrud Rv 25,,60.8126260,11.1717620,,,0,
761015040,,Nilsrud Rysvea,,60.8132250,11.1725020,,,0,
761015041,,Vang sentral,,60.8174480,11.1856240,,,0,
761015042,,Vang krk.,,60.8016620,11.1306350,,,0,
761015043,,Åker,,60.8008080,11.1227480,,,0,
761015044,,Ålstad,,60.8229830,11.2107060,,,0,
761015047,,Alderslyst,,60.8624040,11.2517190,,,0,
761015048,,Bekken,,60.8865090,11.2282420,,,0,
761015049,,Bergset sag,,60.8810230,11.2431350,,,0,
761015050,,Bergsetbakken,,60.8844950,11.2363400,,,0,
761015051,,Blæstad,,60.8202100,11.1815090,,,0,
761015052,,Vårtun,,60.8685950,11.1280210,,,0,
761015053,,Greftenmoen,,60.8580090,11.2179690,,,0,
761015054,,Dalfarmen,,60.7883260,11.2018120,,,0,
761015055,,Dystvoldsvea,,60.8743670,11.1993170,,,0,
761015056,,Dørum,,60.8094600,11.2071620,,,0,
761015057,,Kylgårdskrysset,,60.8631970,11.2420320,,,0,
761015058,,Sagbrua Ekbo,,60.8701060,11.2417980,,,0,
761015059,,Stålbågågutua,,60.8780170,11.2441230,,,0,
761015060,,Sevendal,,60.8733440,11.2432790,,,0,
761015061,,Finsal,,60.8051990,11.1353380,,,0,
761015063,,Flagstadsaga,,60.8192140,11.1140370,,,0,
761015064,,Gihle,,60.7968140,11.2038830,,,0,
761015065,,Grubhol,,60.8198780,11.1931100,,,0,
761015066,,Heimdal,,60.8492430,11.2026340,,,0,
761015067,,Herset,,60.8213310,11.1384540,,,0,
761015068,,Hjellumkrysset,,60.8004680,11.1480360,,,0,
761015069,,Hjellum jb.st.,,60.7927280,11.1500720,,,0,
761015070,,Hjellum sør,,60.7894820,11.1491750,,,0,
761015071,,Frognervegen 5,,60.7935330,11.1521100,,,0,
761015072,,Lovisenberg skole,,60.7951200,11.1622140,,,0,
761015074,,Skrenten,,60.8200040,11.1276990,,,0,
761015075,,Ingebergfeltet,,60.8283960,11.1348970,,,0,
761015076,,Holstua,,60.8305020,11.1346510,,,0,
761015077,,Holskrysset,,60.7855340,11.2054410,,,0,
761015078,,Hveberg,,60.8144760,11.1086850,,,0,
761015079,,Bjørgeli,,60.8223380,11.1002640,,,0,
761015080,,Smestad,,60.8322140,11.0970300,,,0,
761015081,,Imerslund,,60.8218150,11.1170230,,,0,
761015082,,Ingelsrud,,60.8447690,11.1823920,,,0,
761015083,,Kirkebyenga,,60.8760110,11.1798820,,,0,
761015084,,Korslund,,60.8503270,11.1596120,,,0,
761015085,,Krogsti,,60.8570060,11.2171260,,,0,
761015086,,Kurud mølle,,60.7862740,11.1627760,,,0,
761015087,,Kvæka,,60.7787930,11.1866830,,,0,
761015088,,Lia Gåsbuvegen,,60.8851050,11.1873400,,,0,
761015089,,Lia Øståsvegen,,60.8786740,11.2300540,,,0,
761015090,,Libergstajet,,60.8423920,11.2368190,,,0,
761015091,,Liberg,,60.8396260,11.2352090,,,0,
761015092,,Lovisenberg,,60.7992020,11.1669560,,,0,
761015093,,Narmo,,60.8609960,11.1166880,,,0,
761015094,,Nashoug,,60.8231510,11.1634630,,,0,
761015095,,Nordsveen,,60.8435480,11.1188100,,,0,
761015096,,Nygård,,60.8532520,11.2105880,,,0,
761015097,,Myhrsbakken,,60.8299940,11.1768220,,,0,
761015098,,Opsahl,,60.8337140,11.1889610,,,0,
761015100,,Dælibakken,,60.8297160,11.1883380,,,0,
761015101,,Lunden sk.,,60.8384320,11.1952840,,,0,
761015102,,Palerud,,60.8638880,11.1647830,,,0,
761015103,,Rapstad,,60.8447190,11.2389150,,,0,
761015104,,Kapp,,60.8217540,11.1507510,,,0,
761015105,,Rødsetervollen,,60.8935050,11.2233290,,,0,
761015106,,Sandaker,,60.8601260,11.2419820,,,0,
761015107,,Skjeset,,60.8735770,11.1287580,,,0,
761015108,,Svestad,,60.8582610,11.1638490,,,0,
761015109,,Nordre Tomter,,60.8427540,11.1531190,,,0,
761015110,,Søndre Tomter,,60.8367080,11.1469350,,,0,
761015111,,Trehørningen,,60.8336410,11.0989820,,,0,
761015112,,Trehørningen industriomr.,,60.8416290,11.1032420,,,0,
761015113,,Tønset,,60.8696900,11.1665190,,,0,
761015114,,Vangseter,,60.8826410,11.1809980,,,0,
761015115,,Greften,,60.8533020,11.2027470,,,0,
761015116,,Kartomten,,60.8441700,11.2065180,,,0,
761015117,,Nyberg,,60.8442760,11.2162080,,,0,
761015118,,Bjørtomtsvegen,,60.8444480,11.2259930,,,0,
761015119,,Vendkvern,,60.8482930,11.1002920,,,0,
761015120,,Solgløtt,,60.7989850,11.2290670,,,0,
761015121,,Fallsbrua,,60.8005140,11.2349260,,,0,
761015122,,Vold,,60.7974320,11.2150090,,,0,
761015123,,Ålerudrønningen,,60.8646930,11.2244920,,,0,
761015124,,Ålerud,,60.8717040,11.2181270,,,0,
761015125,,Åsvestadgårdene,,60.8570060,11.2513390,,,0,
761015127,,Rysvea,,60.8114280,11.1670100,,,0,
761015128,,Vangli,,60.8139230,11.1747740,,,0,
761015129,,Farmen,,60.7931750,11.1953090,,,0,
761015130,,Spikkerud sag,,60.8655700,11.1668300,,,0,
761015131,,Ingeberg sk.,,60.8268620,11.1306190,,,0,
761015132,,Ingebergfeltet nedre,,60.8272670,11.1254950,,,0,
761015133,,Ingebergsbakken,,60.8284800,11.1271940,,,0,
761015135,,Arnset,,60.8363910,11.2587960,,,0,
761015136,,Arnsethagen,,60.8379020,11.2497190,,,0,
761015137,,Skålerud 1,,60.8519940,11.1822400,,,0,
761015139,,Kallerud,,60.8329770,11.2319300,,,0,
761015140,,Ilseng gård,,60.7808800,11.2131490,,,0,
761015141,,Linjevegen,,60.7773820,11.2189870,,,0,
761015142,,Elvsrud,,60.8562810,11.1355620,,,0,
761015143,,Svenkerud,,60.8545880,11.1460350,,,0,
761015147,,Brumunddal rutebilstasjon,,60.8831710,10.9411780,,,0,
761015148,,Brumund sag,,60.9938050,10.9639770,,,0,
761015150,,Djupdalen,,60.9005810,10.9666650,,,0,
761015152,,Brumunddal Esso E6,,60.8798710,10.9301900,,,0,
761015153,,Slåttsvevegen,,60.9067230,10.9600360,,,0,
761015154,,Kvalfeltet,,60.8565900,11.0155130,,,0,
761015155,,Buttekvern,,60.8829920,10.9467690,,,0,
761015157,,Langmoen,,60.8862230,10.9362220,,,0,
761015159,,Stigen,,60.8868220,10.9018700,,,0,
761015160,,Thore Bjerkes veg,,60.8790740,10.9450930,,,0,
761015163,,Sanden Mørkved,,60.8660430,10.9648350,,,0,
761015166,,Sidearmen Brumundvegen,,60.9239040,10.9800970,,,0,
761015170,,Flåhagenfeltet,,60.8912850,10.9623880,,,0,
761015171,,Sidearmen Nordåsvegen,,60.8930660,10.9683050,,,0,
761015172,,Myhres plass,,60.8972430,10.9737790,,,0,
761015173,,Snøplogbakken,,60.8872300,10.9008620,,,0,
761015174,,Børkesvevegen,,60.8977510,10.9545270,,,0,
761015176,,Lillevegen,,60.8869360,10.9404300,,,0,
761015177,,Røyslivegen,,60.9022480,10.9566090,,,0,
761015178,,Veldrevegen,,60.8994180,10.9392710,,,0,
761015179,,Ajak,,60.8905330,10.9519100,,,0,
761015180,,Liavegen,,60.8884240,10.9554120,,,0,
761015182,,Bakkehaugen,,60.8924180,10.9358230,,,0,
761015183,,Evenrudstykkjet,,60.9008640,10.9548460,,,0,
761015184,,Fagerlund gamle skole,,60.8918910,10.9312200,,,0,
761015185,,Ringsaker vgs. Brumunddal,,60.8906140,10.9419800,,,0,
761015186,,Ånnerudvegen,,60.9023280,10.9366820,,,0,
761015187,,Jemtland,,60.8942760,10.9190140,,,0,
761015189,,Sveum,,60.8915020,10.9438770,,,0,
761015190,,Kongsvegen legesenter,,60.8764460,10.9527440,,,0,
761015191,,Kongelholgutua,,60.8734970,10.9556410,,,0,
761015192,,Fossumfeltet snuplass,,60.9075390,10.9608060,,,0,
761015193,,Sandbakken Furnes,,60.8357660,11.0561740,,,0,
761015194,,Brumunddal bibliotek,,60.8848690,10.9473810,,,0,
761015195,,Hempa skole,,60.8982240,10.9560120,,,0,
761015196,,Fagerlund nye skole,,60.8937260,10.9415620,,,0,
761015197,,Furnes ungdomsskole,,60.8502310,11.0415480,,,0,
761015198,,Lillebørke,,60.8964270,10.9417990,,,0,
761015199,,Mørkvedvegen,,60.8802260,10.9523120,,,0,
761015200,,Neskrysset,,60.8872800,10.9088440,,,0,
761015201,,Pellervika,,60.8874700,10.9161360,,,0,
761015205,,Byflaten,,60.9195440,10.9064950,,,0,
761015207,,Gamle Dæhli,,60.7960430,10.7679770,,,0,
761015208,,Dæhli skole,,60.7942050,10.7568680,,,0,
761015209,,Mailundkrysset,,60.7925950,10.8961690,,,0,
761015210,,Evenstad,,60.8439980,10.9773780,,,0,
761015211,,Åsgård,,60.8671380,10.7673030,,,0,
761015212,,Marken,,60.8642460,10.7652650,,,0,
761015213,,Gaupenhenger,,60.8335990,10.7451760,,,0,
761015214,,Gaupen sk.,,60.8712160,10.7796290,,,0,
761015215,,Revlinghagan,,60.8649980,10.7656740,,,0,
761015216,,Havik,,60.9903560,10.6035390,,,0,
761015217,,Havikberget,,60.9836010,10.6308120,,,0,
761015218,,Hersoug,,60.8732530,10.7823770,,,0,
761015219,,Rønning,,60.8754920,10.7734190,,,0,
761015220,,Soug,,60.8697430,10.7997700,,,0,
761015221,,Hol,,60.7691760,10.9054540,,,0,
761015222,,Håve,,60.8716770,10.8109310,,,0,
761015223,,Jølstad,,60.8420180,10.7810970,,,0,
761015224,,Ingeberg,,60.8473550,10.7972230,,,0,
761015227,,Kylstad skole,,60.8743320,11.0413370,,,0,
761015228,,Lindal,,60.8300060,10.9015470,,,0,
761015229,,Hagelund Lismarka,,61.0682790,10.6412070,,,0,
761015230,,Felugstad,,61.0698280,10.6328350,,,0,
761015231,,Hagatun,,61.0704690,10.6273450,,,0,
761015232,,Sæterlivegen,,61.0580670,10.7037820,,,0,
761015233,,Ringom,,61.0694010,10.6038270,,,0,
761015234,,Bekkedalen,,61.0701640,10.5963780,,,0,
761015235,,Sortåshøgda,,61.0697360,10.5801030,,,0,
761015236,,Sortåslykkja,,61.0686650,10.5758050,,,0,
761015237,,Midtlia,,61.0794370,10.6340170,,,0,
761015238,,Bjørnsrud,,61.0789720,10.6222570,,,0,
761015239,,Øverlia Lismarka,,61.0855140,10.6403750,,,0,
761015240,,Lismarka,,61.0707130,10.6232610,,,0,
761015241,,Lismarka sk.,,61.0711400,10.6282320,,,0,
761015243,,Mengshol,,60.8102800,10.7312580,,,0,
761015245,,Kvernstubrua,,60.9477840,10.7672130,,,0,
761015247,,Mjøskroa,,60.9152790,10.7084740,,,0,
761015249,,Moelv Shell E6,,60.9195100,10.7049100,,,0,
761015250,,Mjøssenteret nord,,60.9206200,10.7036870,,,0,
761015251,,Moelv ungdomsskole,,60.9267460,10.6927960,,,0,
761015252,,Ringsaker Elektro,,60.9112590,10.7370650,,,0,
761015253,,Brufoss,,60.9524230,10.7681710,,,0,
761015255,,Ringsaker folkehøgsk.,,60.9126550,10.7416600,,,0,
761015256,,Kroken,,60.9459920,10.7592850,,,0,
761015260,,Øvre Fossen,,60.9403760,10.7277050,,,0,
761015261,,Bekkedalskrysset,,60.9390870,10.6940420,,,0,
761015262,,Elgtråkket,,60.9414560,10.7042650,,,0,
761015264,,Øymohellinga,,60.9438170,10.7007540,,,0,
761015266,,Moelv brannstasjon,,60.9307100,10.7027120,,,0,
761015267,,Øgardsvegen,,60.9403650,10.7179770,,,0,
761015268,,Bassengvegen II,,60.9386180,10.7149110,,,0,
761015269,,Bassengvegen I,,60.9372020,10.7097410,,,0,
761015270,,Nedre Fossen,,60.9378780,10.7214980,,,0,
761015271,,Røstadvegen II,,60.9385720,10.7214060,,,0,
761015272,,Røstadvegen I,,60.9391480,10.7240760,,,0,
761015273,,Fossvegen,,60.9382860,10.7182340,,,0,
761015276,,Pinnerudvegen/Fauskerudvegen,,60.9386790,10.7038210,,,0,
761015277,,Ringslia,,60.9431500,10.6901600,,,0,
761015278,,Stapperudvegen,,60.9398080,10.7235580,,,0,
761015279,,Strandvegen Moelv,,60.9250110,10.7015410,,,0,
761015280,,Ringsaker sykehjem,,60.9344750,10.6980780,,,0,
761015282,,Fossen Mat,,60.9393270,10.7162780,,,0,
761015283,,Pinnerudvegen,,60.9350590,10.7059530,,,0,
761015284,,Moelv v. gamle bomst.,,60.9232980,10.6913480,,,0,
761015287,,Myrgård,,60.8151860,10.9112040,,,0,
761015289,,Myrvoll,,60.8507120,11.0158240,,,0,
761015292,,Nes sentral,,60.7904280,10.9026920,,,0,
761015293,,Torp i Nes,,60.7834970,10.9226530,,,0,
761015294,,Enebo,,60.7875630,10.9122040,,,0,
761015295,,Nes legesenter,,60.7624440,10.9273210,,,0,
761015296,,Fossum Kisevegen,,60.7714310,10.8889680,,,0,
761015297,,Kjonerud,,60.8148800,10.8895440,,,0,
761015298,,Nes skole,,60.8022040,10.8440960,,,0,
761015299,,Nedre Berg Nes,,60.7998120,10.8798340,,,0,
761015300,,Næroset,,60.9750480,10.7761730,,,0,
761015301,,Buvika,,60.9815790,10.7868140,,,0,
761015302,,Putten,,60.9025270,11.0394330,,,0,
761015304,,Rudshøgda OBS,,60.9102330,10.8107770,,,0,
761015306,,Simenstad,,60.9204670,10.8202300,,,0,
761015307,,Rud,,60.9194680,10.8126290,,,0,
761015308,,Stolpestad,,60.9018060,10.8103170,,,0,
761015309,,Rudshøgda stasjon,,60.9154550,10.8150390,,,0,
761015310,,Furu steinerskole,,60.9203380,10.8378230,,,0,
761015311,,Nortura Rudshøgda,,60.9039760,10.8165440,,,0,
761015312,,Rudshøgda E6,,60.9121740,10.8121220,,,0,
761015313,,Sjusjøen,,61.1642610,10.7073700,,,0,
761015315,,Graaten,,61.1529270,10.6917420,,,0,
761015316,,Sjusjøvangen,,61.1509480,10.6914690,,,0,
761015317,,Sjusjøen skisenter,,61.1151770,10.7419170,,,0,
761015318,,Nordseterkrysset Sjusjøen,,61.1477090,10.6877100,,,0,
761015319,,Rustad fjellstue,,61.1515390,10.7001780,,,0,
761015321,,Hoelsgård hotel,,61.1463550,10.6888450,,,0,
761015322,,Snekkerhagen,,60.9421230,10.7362550,,,0,
761015323,,Solhaug,,60.7949030,10.7555660,,,0,
761015324,,Stavsjø,,60.8050040,10.8389640,,,0,
761015325,,Stavsjø Brænderi,,60.8150020,10.8413940,,,0,
761015326,,Briskebyen,,60.8041380,10.8252570,,,0,
761015328,,Slettvoll,,60.8086970,10.8394700,,,0,
761015329,,Presterud,,60.8106650,10.8143410,,,0,
761015331,,Taskerud,,60.8071210,10.7399480,,,0,
761015333,,Grande rekreasjonshjem,,60.7683830,10.9464620,,,0,
761015334,,Tingnes,,60.7620700,10.9414890,,,0,
761015335,,Tingvang,,60.9021030,10.7288970,,,0,
761015336,,Skapal Åshøgdvegen,,60.9015240,10.7454030,,,0,
761015337,,Skapal 2,,60.9061810,10.7358300,,,0,
761015339,,Leine,,60.8977360,10.7903610,,,0,
761015340,,Samsalkrysset,,60.8981780,10.7683740,,,0,
761015341,,Eriksrud,,60.8990860,10.7596310,,,0,
761015344,,Granly,,61.0108110,10.7839610,,,0,
761015345,,Stubberudgrinda,,61.0051080,10.7935370,,,0,
761015346,,Busmundrud,,61.0180780,10.7708620,,,0,
761015347,,Åsen skole,,61.0268480,10.7544880,,,0,
761015348,,Nyhus,,61.0331920,10.7488030,,,0,
761015349,,Haugsvehøgda,,61.0432850,10.7375630,,,0,
761015350,,Onsumrampa,,61.0482100,10.7241080,,,0,
761015351,,Bjerkely,,61.0503270,10.7150730,,,0,
761015352,,Bjerkelysveen,,61.0529480,10.7093980,,,0,
761015353,,Tørtopp,,60.9576490,10.7355860,,,0,
761015356,,Bergsengkrysset,,61.0417520,10.4978080,,,0,
761015357,,Brøttum skole,,61.0281910,10.5564540,,,0,
761015358,,Solstadkrysset,,61.0245780,10.5561660,,,0,
761015359,,Mæhlum,,61.0300750,10.5473100,,,0,
761015360,,Mæhlumslykkja,,61.0331730,10.5432950,,,0,
761015361,,Holtekrysset,,61.0352940,10.5455650,,,0,
761015362,,Krokrampa,,61.0383870,10.5309030,,,0,
761015363,,Kinne,,61.0292780,10.5782380,,,0,
761015364,,Tokstad,,61.0284610,10.5689420,,,0,
761015365,,Tømmermyra,,61.0282750,10.5328220,,,0,
761015366,,Brøttumskrysset,,61.0264470,10.5480590,,,0,
761015368,,Hylla,,60.8436090,10.8231830,,,0,
761015369,,Jessnes øvre,,60.8343540,10.9875450,,,0,
761015371,,Vika,,60.8373220,10.9805540,,,0,
761015372,,Hansen,,60.8395880,10.9803810,,,0,
761015373,,Brånås,,60.8224560,11.0187730,,,0,
761015374,,Steens kalkbrenneri,,60.8208470,11.0094760,,,0,
761015378,,Idyllen,,60.8263850,10.9938200,,,0,
761015379,,Borghild Ruds veg,,60.8237690,11.0031300,,,0,
761015380,,Lefstorvet Mellems plass,,60.8352580,11.0082650,,,0,
761015381,,Jessnes midtre,,60.8334080,10.9853150,,,0,
761015382,,Jessnes stasjon,,60.8295330,10.9845050,,,0,
761015385,,Hulleberg Nes,,60.7886470,10.8806310,,,0,
761015387,,Olrud,,60.8300780,11.0692210,,,0,
761015390,,Haugen Fløtlia,,60.9538230,10.7433930,,,0,
761015391,,Fløtlia,,60.9608840,10.7542710,,,0,
761015392,,Brennlien,,60.9655880,10.8783250,,,0,
761015393,,Storlien,,60.9318350,10.8362700,,,0,
761015394,,Storlitajet,,60.9343070,10.8340320,,,0,
761015395,,Torsæter,,60.9418180,10.9785880,,,0,
761015397,,Torsæter lille,,60.9444730,10.9764810,,,0,
761015398,,Fiskersvingen,,61.0943910,10.6552470,,,0,
761015399,,Lundvoll,,61.0665250,10.6614460,,,0,
761015400,,Furnes kirke,,60.8421940,11.0219870,,,0,
761015401,,Haave Furnes,,60.8522450,11.0086500,,,0,
761015402,,Stenbergvegen,,60.8194850,11.0625950,,,0,
761015404,,Kvarbergvika,,60.8716930,10.8990160,,,0,
761015405,,Sanden Nesvegen,,60.8679620,10.9094960,,,0,
761015406,,Skaugen,,60.9543910,10.6780690,,,0,
761015408,,Mausettajet,,60.9259190,11.0062020,,,0,
761015409,,Mauset skole,,60.9208760,10.9996860,,,0,
761015410,,Åskrysset,,60.8970870,10.8127970,,,0,
761015411,,Granlien,,60.7453040,11.0095750,,,0,
761015412,,Hovinsholm,,60.7199630,11.0056820,,,0,
761015413,,Grønnerud,,60.7510870,10.9599290,,,0,
761015415,,Helgøya kapell,,60.7441480,10.9583860,,,0,
761015416,,Heggen,,60.7521210,10.9658100,,,0,
761015417,,Fjellhaug,,60.7374880,10.9580910,,,0,
761015418,,Avlangrud,,60.7506870,10.9956160,,,0,
761015419,,Grimsrud,,60.7311780,10.9651900,,,0,
761015420,,Fagerheim,,60.7497290,11.0044200,,,0,
761015421,,Raknerud,,60.7263300,10.9772710,,,0,
761015422,,Hovelsrud,,60.7224430,10.9869150,,,0,
761015423,,Kjelsrud,,60.7362860,11.0065900,,,0,
761015424,,Ekeberg,,60.7211150,10.9959630,,,0,
761015425,,Nedre Vien,,60.7332840,11.0030460,,,0,
761015426,,Avlangrud vestre,,60.7526130,10.9856230,,,0,
761015427,,Bakkerud,,60.9132960,10.9865390,,,0,
761015428,,Vikhagan,,60.7485240,10.9378630,,,0,
761015429,,Sund,,60.7541580,10.9536200,,,0,
761015430,,Nedre Sund,,60.7549020,10.9483980,,,0,
761015431,,Arneberg,,60.9968800,10.7969930,,,0,
761015432,,Mesnalia,,61.1025280,10.6965070,,,0,
761015433,,Gråsgårdenga,,61.1293680,10.6420350,,,0,
761015434,,Labussa,,61.0963440,10.6796300,,,0,
761015435,,Håkenstad,,61.1118430,10.6819180,,,0,
761015436,,Kvernenga,,61.1284410,10.6473540,,,0,
761015437,,Arnestad,,61.1097340,10.6860930,,,0,
761015439,,Dalheim,,61.0970840,10.6362260,,,0,
761015440,,Olestad,,61.1180460,10.6725770,,,0,
761015441,,Messenlia,,61.1226580,10.6642070,,,0,
761015442,,Vold (Mesnali),,61.0961530,10.6477520,,,0,
761015443,,Nybuvegen (Sjusjøen),,61.1361350,10.6927010,,,0,
761015446,,Korslund,,60.8572960,10.8332230,,,0,
761015447,,Tangnes,,60.8244600,10.7121980,,,0,
761015448,,Dalby Tangnesvegen,,60.8366700,10.7624550,,,0,
761015450,,Fredheim kursted,,60.7782750,10.8656790,,,0,
761015452,,Alhaug,,60.8001060,10.9219940,,,0,
761015454,,Øvre Alm,,61.0190960,10.5704040,,,0,
761015455,,Almsbakken,,61.0148280,10.5844950,,,0,
761015456,,Amundrud,,60.9172440,10.9920430,,,0,
761015458,,Arnkværn,,60.8350140,11.0827320,,,0,
761015461,,Bakketun,,60.8426780,10.7937400,,,0,
761015462,,Bangsberg,,60.8593860,10.9120220,,,0,
761015463,,Bekkeli,,60.9180370,10.9171590,,,0,
761015464,,Stor-Berg,,60.9797670,10.6506680,,,0,
761015465,,Nedre Berg Brøttum,,61.0327530,10.5170250,,,0,
761015466,,Øvre Berg,,61.0385130,10.5157640,,,0,
761015467,,Dalby Brøttum,,61.0386730,10.5025330,,,0,
761015468,,Bergsmeieriet,,60.8016590,10.8731410,,,0,
761015469,,Hove,,60.7963710,10.8863760,,,0,
761015470,,Bergaust,,60.9105760,10.9668760,,,0,
761015471,,Berger sag,,60.9116740,10.9850370,,,0,
761015472,,Bergshøgda,,60.8563390,10.9901080,,,0,
761015473,,Bjørke,,60.9224400,10.8579980,,,0,
761015474,,Bjørnerud,,60.8815770,11.0220100,,,0,
761015475,,Bogsti,,60.8953930,10.8544890,,,0,
761015476,,Bratberg Jølstad,,60.8396150,10.8084740,,,0,
761015477,,Bratberg Tingnes,,60.7732240,10.9464610,,,0,
761015478,,Bratten,,60.9729390,10.9753850,,,0,
761015479,,Bredvold,,60.7847630,10.7842730,,,0,
761015482,,Brodal,,60.8880350,11.0343800,,,0,
761015484,,Midtbruket,,61.0460510,10.6480400,,,0,
761015485,,Brukrokrysset,,61.0428700,10.6232450,,,0,
761015486,,Gammelenga,,61.0452540,10.6355160,,,0,
761015487,,Bråten Mengshol,,60.8175390,10.7233390,,,0,
761015488,,Byenkrysset,,60.9989700,10.6893900,,,0,
761015489,,Bårdseth,,60.9518010,10.7792720,,,0,
761015491,,Dalby Brumundvegen,,60.9737700,10.9632400,,,0,
761015492,,Dalerstuen,,60.8620760,11.0903690,,,0,
761015493,,Danielsberg,,60.9833110,10.8009040,,,0,
761015494,,Dehli,,61.0154000,10.5529220,,,0,
761015495,,Doknes,,60.8210750,10.8724010,,,0,
761015496,,Evenrud,,60.8191150,10.8512120,,,0,
761015497,,Duenger,,60.8092160,10.9205180,,,0,
761015498,,Dusgård,,60.9571650,10.7026670,,,0,
761015499,,Elgeseth,,60.8860020,10.8335990,,,0,
761015500,,Ellevsæter,,60.9782070,10.8412190,,,0,
761015501,,Eng,,60.7845420,10.8882890,,,0,
761015502,,Engebakk,,60.8703520,11.0479170,,,0,
761015503,,Engeskaug,,60.9177250,11.0021450,,,0,
761015504,,Fagertun,,60.8523750,10.8070770,,,0,
761015505,,Falkendal,,60.9596060,10.9830910,,,0,
761015506,,Fangberget,,60.8955230,10.8764320,,,0,
761015507,,Faråsenkrysset,,60.9491880,10.9897000,,,0,
761015508,,Faråsen,,60.9504780,10.9950070,,,0,
761015509,,Fauskerudhøgda,,61.0735590,10.5546400,,,0,
761015510,,Fossum,,60.8982050,10.9647670,,,0,
761015511,,Framnes,,60.8790930,10.8946290,,,0,
761015512,,Framnesbrua,,60.8835180,10.8980250,,,0,
761015513,,Freng,,61.0072360,10.5633440,,,0,
761015514,,Korslund Freng,,61.0117190,10.5538340,,,0,
761015515,,Frydenberg,,60.8291280,11.0140790,,,0,
761015516,,Frøyseth,,60.8249240,11.0307930,,,0,
761015517,,Gaven,,60.8710210,10.8349130,,,0,
761015518,,Gimse,,60.9529880,10.9944800,,,0,
761015519,,Gjerlaug,,60.8757250,11.0395840,,,0,
761015520,,Nedre Gjestvang,,60.7736660,10.8318800,,,0,
761015522,,Øvre Gjestvang,,60.7747760,10.8393800,,,0,
761015523,,Granerud,,60.8966900,11.0292170,,,0,
761015525,,Grasbakken,,61.0618020,10.6563060,,,0,
761015526,,Grindal,,60.8680500,11.0541610,,,0,
761015527,,Gropen,,60.8962210,10.8175030,,,0,
761015528,,Grøtholm,,60.8683620,11.0821960,,,0,
761015529,,Gubberud,,60.7968220,10.7741020,,,0,
761015530,,Gundersvea,,60.9641570,10.9597840,,,0,
761015532,,Gålåskrysset,,60.8628920,11.0717850,,,0,
761015533,,Gålåsbana,,60.8471570,11.0781480,,,0,
761015534,,Gålåsgutua/Gålåsvegen,,60.8583530,11.0597800,,,0,
761015535,,Gårum,,60.7945900,10.8712590,,,0,
761015536,,Haga mølle,,60.8404240,11.0831210,,,0,
761015537,,Haga Bruk,,60.9602700,10.7656150,,,0,
761015538,,Hagelund,,60.9043850,10.9720260,,,0,
761015539,,Bruen,,60.9080350,10.9746490,,,0,
761015540,,Hagelund skole,,60.8169780,10.9031830,,,0,
761015541,,Vassli (Halla),,61.0485500,10.4902770,,,0,
761015543,,Harstad,,60.9165230,10.8515110,,,0,
761015544,,Haug,,60.8194890,10.9162050,,,0,
761015547,,Hauger,,60.9778370,10.6731330,,,0,
761015548,,Haugli,,60.8752210,11.0307640,,,0,
761015549,,Haugom,,60.8265150,10.7635890,,,0,
761015550,,Helseth,,60.8022120,10.8103890,,,0,
761015552,,Heramb,,60.8546560,10.8193200,,,0,
761015553,,Herset,,60.8452950,10.8287450,,,0,
761015554,,Hobrenna,,60.8176040,10.7562400,,,0,
761015555,,Holm,,60.9002840,11.0344960,,,0,
761015556,,Nord-Holo,,60.8366550,10.7709920,,,0,
761015557,,Pleiehjemmet,,60.8318790,10.7676730,,,0,
761015558,,Holo,,60.8337400,10.7864130,,,0,
761015562,,Husum,,60.8719560,11.0838310,,,0,
761015563,,Høylund,,60.7798650,10.8052700,,,0,
761015564,,Håkenåsen,,60.9967120,10.6336480,,,0,
761015565,,Storihle,,60.8465690,10.9742410,,,0,
761015566,,Ihle gård,,60.8131260,10.8063340,,,0,
761015567,,Jevanord,,60.8496820,10.9743230,,,0,
761015568,,Jørgensborggrinda,,61.0692830,10.5613060,,,0,
761015569,,Kilde,,60.8765640,11.0197210,,,0,
761015570,,Kilde sk.,,60.9398380,10.6930480,,,0,
761015571,,Kinnsæterhøgda,,61.1004370,10.6292930,,,0,
761015572,,Kirkeby,,60.8736080,11.0575390,,,0,
761015573,,Kise,,60.7782970,10.8184240,,,0,
761015574,,Kjellvold,,60.9812890,10.8259450,,,0,
761015576,,Kjosberget Harby,,60.9660000,10.6594500,,,0,
761015578,,Kjos,,60.9192350,10.7678080,,,0,
761015579,,Kløvstad,,60.9970470,10.6119000,,,0,
761015580,,Knapper (Brumundvegen),,60.9277040,10.9807750,,,0,
761015581,,Knatterud,,60.8050230,10.9222150,,,0,
761015582,,Kokshus,,60.7804990,10.8917260,,,0,
761015583,,Kolostua,,60.9453050,10.8111630,,,0,
761015584,,Kolstad,,60.8809780,10.8211140,,,0,
761015585,,Kongelhol,,60.8749200,10.9619360,,,0,
761015586,,Krogrud,,60.8314900,10.7424500,,,0,
761015587,,Krogvik,,60.8873440,10.7488490,,,0,
761015588,,Kråkerudkrysset,,60.8433380,10.7900590,,,0,
761015590,,Kulperudenga,,61.0621870,10.6126160,,,0,
761015591,,Kvam,,60.7902030,10.9304960,,,0,
761015592,,Dal mølle,,60.8272930,10.8920790,,,0,
761015593,,Kvernvolden,,60.8232500,10.8839490,,,0,
761015596,,Langgård,,60.8067700,10.8728890,,,0,
761015597,,Langtjernet,,61.0549160,10.6084490,,,0,
761015598,,Lie,,60.7900010,10.7698300,,,0,
761015599,,Lierkrysset,,60.9943890,10.6437170,,,0,
761015600,,Lillehoff,,60.8545760,10.9969580,,,0,
761015601,,Lillesveen,,60.8586240,10.9714690,,,0,
761015602,,Bjørgekrysset,,60.8612900,11.1008150,,,0,
761015605,,Lundehagen,,60.9603960,10.6827990,,,0,
761015606,,Løberg,,60.8653870,11.0624990,,,0,
761015607,,Løvli,,60.9044880,10.7201950,,,0,
761015608,,Løvstuen,,60.9988400,10.5872120,,,0,
761015609,,Mariendal,,60.9371380,10.9915130,,,0,
761015610,,Maurud,,60.8647500,11.0805440,,,0,
761015611,,Meieribakken,,60.9147190,10.8591720,,,0,
761015612,,Monsbakken,,60.8460580,10.9074900,,,0,
761015615,,Mytsvingen,,61.0791050,10.5533730,,,0,
761015616,,Mæhlum,,60.9085010,10.9315240,,,0,
761015617,,Bjørge nordre,,60.9127200,10.9260240,,,0,
761015618,,Mæhlum,,60.7969360,10.7845100,,,0,
761015619,,Møllerstua,,61.0390400,10.5902020,,,0,
761015620,,Mikjelstua,,61.0439110,10.5929100,,,0,
761015621,,Sandbakken Mørkved,,60.8675920,10.9601600,,,0,
761015622,,Mørkved skole,,60.8707850,10.9580350,,,0,
761015624,,Narud,,60.9122730,10.9704480,,,0,
761015625,,Nerlien,,60.8353880,10.9101100,,,0,
761015626,,Nordsveen,,60.9115410,10.8662350,,,0,
761015627,,Nordvang,,60.9919890,10.6746160,,,0,
761015629,,Søgårdskrysset,,60.9243580,11.0269360,,,0,
761015631,,Jonsdal,,60.9213290,11.0330340,,,0,
761015632,,Øverlia Nybygda,,60.9178920,11.0353240,,,0,
761015633,,Nybygda,,60.9266590,11.0298500,,,0,
761015634,,Nydal Statoil,,60.8423460,11.0474890,,,0,
761015635,,Jensbakken,,60.8459510,11.0426740,,,0,
761015636,,Nermarka,,60.8439290,11.0467600,,,0,
761015637,,Nydalsdumpa,,60.8472600,11.0302220,,,0,
761015638,,Nysætra,,60.9810260,10.9614320,,,0,
761015639,,Olasveen,,61.0662080,10.6774780,,,0,
761015640,,Ottersrud,,60.9184000,10.8670790,,,0,
761015641,,Østre Ousdal,,60.7968100,10.9249210,,,0,
761015643,,Pinnerud,,60.8872910,11.0258730,,,0,
761015645,,Refling,,60.8541720,10.7742440,,,0,
761015646,,Ring stasjon,,60.9608880,10.6677530,,,0,
761015647,,Vea,,60.9522480,10.6808550,,,0,
761015648,,Hulleberg Ring,,60.9587250,10.7240830,,,0,
761015650,,Melkehuset,,60.9414290,10.8777310,,,0,
761015651,,Klevbakken,,60.9388580,10.8843730,,,0,
761015654,,Skansvegen,,60.8899730,10.9121200,,,0,
761015656,,Ringen rekreasjonshjem,,60.9666180,10.6741130,,,0,
761015657,,Strandbakken,,60.8894350,10.8896220,,,0,
761015658,,Ruberg,,60.7968100,10.8600680,,,0,
761015659,,Ruud Brøttum,,61.0519520,10.4863430,,,0,
761015660,,Ryen,,60.8902550,10.8447720,,,0,
761015661,,Rønningen,,60.9358180,10.8918900,,,0,
761015662,,Lerbrua,,60.9349820,10.9988170,,,0,
761015663,,Sandbu,,60.9444200,10.8008290,,,0,
761015664,,Sandvoll,,60.7813760,10.7944080,,,0,
761015665,,Sigstad,,60.8506050,10.8527390,,,0,
761015666,,Sinsenkrysset,,60.8289550,10.7237510,,,0,
761015668,,Skarderud,,60.8261640,11.0225570,,,0,
761015669,,Skarpsno,,60.9114110,10.7081380,,,0,
761015670,,Skaug,,60.8384930,10.7733570,,,0,
761015671,,Skjønsby,,60.8295140,10.7887900,,,0,
761015672,,Skogen,,60.8556370,10.9755930,,,0,
761015673,,Skauroa,,60.9472310,10.8733090,,,0,
761015674,,Skredshol,,60.8487890,10.7757130,,,0,
761015675,,Skårsveen,,60.8775410,11.0826650,,,0,
761015676,,Sleperud,,60.8840790,11.0786700,,,0,
761015677,,Snarud,,60.8279420,11.0749140,,,0,
761015678,,Solbakken,,60.8954660,10.7369070,,,0,
761015679,,Solbjør,,60.8206600,10.7948980,,,0,
761015680,,Solheim,,60.8879930,10.8375100,,,0,
761015681,,Spikdalshøgda,,60.9015810,10.9794860,,,0,
761015682,,Hovderampa,,60.9075430,10.9898150,,,0,
761015683,,Stafsberg,,60.8240700,11.0592670,,,0,
761015684,,Krokvegen,,60.8260230,11.0625020,,,0,
761015687,,Stafsberg sk.,,60.8195690,11.0546190,,,0,
761015688,,Steinsvea,,60.9688450,10.9623450,,,0,
761015689,,Stenbekk,,60.8645210,10.9760870,,,0,
761015690,,Stenseng,,60.8669050,10.8965410,,,0,
761015691,,Årvold,,60.8524700,10.8619970,,,0,
761015693,,Bordal,,60.8484800,10.8401730,,,0,
761015694,,Helsetkrysset,,60.8500440,10.8498900,,,0,
761015695,,Haug Stensengdalen,,60.8559460,10.8666540,,,0,
761015696,,Sagmoen,,60.8590050,10.8662990,,,0,
761015697,,Kolloen,,60.8631670,10.8815320,,,0,
761015698,,Ødegården,,60.8466680,10.8335160,,,0,
761015699,,Jevne,,60.8414540,10.8159020,,,0,
761015700,,Sterud,,60.7766690,10.8494240,,,0,
761015701,,Stokholm,,60.9795110,10.9717820,,,0,
761015702,,Storsveen,,60.8946880,11.0345270,,,0,
761015705,,Sandli/Stramrud,,60.8556670,11.0991190,,,0,
761015706,,Støve,,60.8825840,11.0362630,,,0,
761015707,,Syljuåsrampa,,60.9812850,10.6723530,,,0,
761015708,,Nordheimkrysset,,60.9861180,10.6650460,,,0,
761015709,,Sørdal,,60.9050940,10.9865820,,,0,
761015710,,Sørum (Brumundvegen),,60.9328650,10.9847140,,,0,
761015711,,Tajet,,60.8133090,10.8779230,,,0,
761015712,,Tandestua,,60.9173770,10.7562130,,,0,
761015713,,Tjerne,,60.8586460,10.7679010,,,0,
761015714,,Trettengen,,61.0041690,10.6020150,,,0,
761015715,,Trættsveen,,60.9538040,10.9690640,,,0,
761015716,,Tørudstad,,60.9455760,10.9936840,,,0,
761015717,,Tåsåsen,,60.8857000,11.0702420,,,0,
761015718,,Høisveengarasjen,,60.8850330,11.0651310,,,0,
761015720,,Ulvenkrysset,,60.9891820,10.6554450,,,0,
761015721,,Trettsveen,,60.9910700,10.6509770,,,0,
761015722,,Ringsaker Montessoriskole,,60.9861340,10.6595200,,,0,
761015724,,Nordre Vassbakken,,61.1428070,10.6931890,,,0,
761015725,,Olsrud,,60.9300080,10.9013440,,,0,
761015726,,Veldre kirke,,60.9171220,10.8916660,,,0,
761015727,,Søsterboligen,,60.9136810,10.8846930,,,0,
761015728,,Bråten Mesnali,,61.0962600,10.6418400,,,0,
761015730,,Vesteng,,60.8738480,11.0222580,,,0,
761015731,,Bjørgedalsvegen/Yksetvegen,,60.8719830,11.0166320,,,0,
761015732,,Vestlien,,60.9118580,10.9933290,,,0,
761015733,,Vikerødegården,,60.8217810,11.0124590,,,0,
761015734,,Vikerkollvegen,,60.8224640,11.0265720,,,0,
761015735,,Voll,,60.8256260,10.9093990,,,0,
761015736,,Wetten,,60.8335880,10.9974700,,,0,
761015737,,Rustad,,60.9429780,10.8225690,,,0,
761015739,,Sangheim,,60.8931240,10.8445140,,,0,
761015740,,Østby Narudvegen,,60.9169200,10.9763610,,,0,
761015741,,Østby Stensengdalen,,60.8656880,10.8936140,,,0,
761015743,,Øverkvern,,60.8927420,10.9550120,,,0,
761015745,,Åsen Rustadberget,,60.9543080,10.8784160,,,0,
761015746,,Sæther,,60.9727780,10.6814400,,,0,
761015747,,Bysætervika,,60.8273320,10.9285580,,,0,
761015748,,Arnkvern Bysætervika,,60.8302760,10.9115530,,,0,
761015750,,Lindheim,,60.9137120,10.7495560,,,0,
761015752,,IKEA Ringsaker,,60.8392840,11.0574860,,,0,
761015753,,Baldishol,,60.7784880,10.8723220,,,0,
761015754,,Bergsodden,,60.9704210,10.6542660,,,0,
761015755,,Sollerud,,60.8607860,10.9797040,,,0,
761015757,,Løken,,60.9205550,10.8305110,,,0,
761015758,,Senstad,,60.8033290,10.7421680,,,0,
761015759,,Skinnstad,,60.7642210,10.9185790,,,0,
761015760,,Stor-Stav,,60.8715290,10.8239820,,,0,
761015761,,Røysheimfeltet,,60.8959390,10.8611560,,,0,
761015762,,Fuglseng,,60.9195590,10.7795390,,,0,
761015763,,Skyberg,,60.9199450,10.7855750,,,0,
761015764,,Bolstad,,60.9203000,10.8021790,,,0,
761015765,,Østbygdvegen 78,,60.8166810,10.8981830,,,0,
761015766,,Sølsberg,,60.7767030,10.8946420,,,0,
761015768,,Tvedt,,60.8699800,11.0102060,,,0,
761015770,,Vinjusvea,,60.9072990,10.8760740,,,0,
761015771,,Vindju,,60.8924290,10.7431180,,,0,
761015772,,Grefsheimvegen,,60.7835390,10.9373870,,,0,
761015773,,Hovda,,60.9340400,10.7077630,,,0,
761015776,,Grindereng,,60.8253590,11.3475320,,,0,
761015777,,Løten kirke,,60.8258510,11.3181710,,,0,
761015778,,Segla bru,,60.8338620,11.3527940,,,0,
761015779,,Årsbakk,,60.8385580,11.3364830,,,0,
761015780,,Løten ungdomsskole,,60.8191380,11.3385060,,,0,
761015781,,Karudvegen,,60.8257680,11.3493830,,,0,
761015782,,Østvang skole,,60.8240810,11.3526820,,,0,
761015783,,Bergkrysset,,60.8150020,11.3510400,,,0,
761015784,,Tingberg,,60.8168140,11.3434860,,,0,
761015785,,Kilde,,60.8184780,11.3445820,,,0,
761015788,,Ådalsbruk stasjon,,60.7969320,11.3091510,,,0,
761015789,,Parken Ådalsbruk,,60.7871820,11.3260150,,,0,
761015790,,Idrettsplassen Ådalsbruk,,60.7878610,11.3330460,,,0,
761015791,,Smiuvegen,,60.7939570,11.3081830,,,0,
761015792,,Ådalsbruk skole,,60.7878230,11.3283580,,,0,
761015793,,Nyhuset,,60.7896730,11.3044390,,,0,
761015794,,Myklegard,,60.8483390,11.3667080,,,0,
761015795,,Balke,,60.8277660,11.2760320,,,0,
761015796,,Brunlaug,,60.8278770,11.2879070,,,0,
761015797,,Ebru,,60.8640480,11.4192960,,,0,
761015798,,Grøholt,,60.8330960,11.3251360,,,0,
761015799,,Husom,,60.8555680,11.3892290,,,0,
761015800,,Jevnaker,,60.8279570,11.2685030,,,0,
761015801,,Strandgrinda,,60.8403820,11.3528860,,,0,
761015802,,Krogsti,,60.8443910,11.3541750,,,0,
761015803,,Tobru,,60.8731160,11.4414650,,,0,
761015804,,Torvestad,,60.8513530,11.3762100,,,0,
761015805,,Engemoen,,60.8856050,11.3147650,,,0,
761015806,,Jønsrud,,60.8698620,11.3722990,,,0,
761015807,,Vestli,,60.8328130,11.2965580,,,0,
761015808,,Gjerlaug,,60.8395200,11.2915740,,,0,
761015809,,Morthov,,60.8465690,11.2932380,,,0,
761015810,,Halsteinshov,,60.8546450,11.2968000,,,0,
761015811,,Reksla,,60.8572240,11.2998760,,,0,
761015812,,Tomte,,60.8633420,11.3023790,,,0,
761015813,,Ringnes,,60.8683470,11.3048760,,,0,
761015814,,Myki,,60.8741800,11.3068810,,,0,
761015815,,Rekstad,,60.8798290,11.3110490,,,0,
761015816,,Brevad,,60.8837850,11.3218210,,,0,
761015817,,Kverneng,,60.8782350,11.3265400,,,0,
761015818,,Holmenbrua,,60.8732220,11.3321080,,,0,
761015819,,Grylling,,60.8684160,11.3285520,,,0,
761015820,,Rydland,,60.8681830,11.3419640,,,0,
761015821,,Sandbakken,,60.8677790,11.3554920,,,0,
761015822,,Dammen,,60.8741110,11.3742170,,,0,
761015823,,Stenbergkrysset,,60.8782650,11.3729410,,,0,
761015824,,Rom,,60.8847470,11.3727410,,,0,
761015826,,Løvlia,,60.8900220,11.3598600,,,0,
761015827,,Rødmoen,,60.8830030,11.3631560,,,0,
761015828,,Mustadenga,,60.8631860,11.3658540,,,0,
761015829,,Kjøs,,60.8572390,11.3617320,,,0,
761015830,,Målerstua,,60.8493960,11.3583170,,,0,
761015835,,Jønsrud skole,,60.8686710,11.3660210,,,0,
761015836,,Petersborg,,60.8929820,11.3737030,,,0,
761015837,,Hørsand,,60.7899930,11.2730020,,,0,
761015838,,Bekkelund,,60.7967260,11.3759470,,,0,
761015841,,Bergumfeltet,,60.8093190,11.3499980,,,0,
761015842,,Bessebykrysset,,60.8065870,11.2977300,,,0,
761015843,,Olastua,,60.8057790,11.2992900,,,0,
761015844,,Bjørnstad,,60.8278160,11.3838830,,,0,
761015845,,Postkassene,,60.8189430,11.3809600,,,0,
761015847,,Elgvegen,,60.8307380,11.2998500,,,0,
761015848,,Brenneriroa,,60.8276900,11.3041750,,,0,
761015852,,Fjælgård,,60.7914730,11.2900510,,,0,
761015853,,Enge,,60.8116460,11.3612020,,,0,
761015854,,Lillehov,,60.8132480,11.3569800,,,0,
761015855,,Finstad,,60.8059690,11.3299150,,,0,
761015856,,Rosenlund,,60.8027950,11.3278650,,,0,
761015857,,Flagstad,,60.8092610,11.3843970,,,0,
761015858,,Haukstad bru,,60.7960050,11.2712590,,,0,
761015859,,Haukstad,,60.7957530,11.2761670,,,0,
761015860,,Furahøgda,,60.7999340,11.2869600,,,0,
761015862,,Holen,,60.7984770,11.3781350,,,0,
761015863,,Hommelstad,,60.8131410,11.3379570,,,0,
761015864,,Høgvold,,60.7983090,11.4487800,,,0,
761015868,,Kjernsholen,,60.7700610,11.5401420,,,0,
761015870,,Klevbakken Handel,,60.7872730,11.3213170,,,0,
761015871,,Brovoll,,60.7884980,11.3469660,,,0,
761015873,,Korslund sag,,60.7981830,11.4286060,,,0,
761015874,,Liven gård,,60.8319130,11.3864880,,,0,
761015876,,Millom,,60.7744330,11.5344640,,,0,
761015879,,Ommang,,60.8023340,11.3052560,,,0,
761015880,,Hedemarken frisk.,,60.8018340,11.3051280,,,0,
761015881,,Oset,,60.7889330,11.4791200,,,0,
761015882,,Veideborg,,60.7818830,11.4799170,,,0,
761015883,,Rokoenga,,60.7765690,11.4802410,,,0,
761015884,,Roko,,60.7715380,11.4842410,,,0,
761015885,,Rokoskogen,,60.7867280,11.4896070,,,0,
761015886,,Rosetporten,,60.8360480,11.3873670,,,0,
761015888,,Sagen,,60.7802510,11.5265270,,,0,
761015889,,Sandaker,,60.7964780,11.4596140,,,0,
761015890,,Sandbakken,,60.7991180,11.4340630,,,0,
761015892,,Skjervetangen,,60.7966960,11.3455800,,,0,
761015893,,Skjervekrysset,,60.7997930,11.3451270,,,0,
761015894,,Rennebrua,,60.7640530,11.5451760,,,0,
761015895,,Bakken øvre,,60.7586980,11.5551610,,,0,
761015896,,Solås,,60.7575260,11.5573630,,,0,
761015897,,Solbergrampa,,60.7547870,11.5642670,,,0,
761015898,,Engen,,60.7488440,11.5734830,,,0,
761015899,,Kalvehuset,,60.7431260,11.5793570,,,0,
761015900,,Hanakne,,60.7411650,11.5846670,,,0,
761015901,,Olahuset,,60.7397920,11.5924650,,,0,
761015902,,Storsveen,,60.7683680,11.4812410,,,0,
761015903,,Nordsveen,,60.7548680,11.5011060,,,0,
761015904,,Nøkleby,,60.7466700,11.5080480,,,0,
761015905,,Fjellberg,,60.7398830,11.5043800,,,0,
761015907,,Engesveen,,60.7374730,11.4872400,,,0,
761015908,,Øyetunga,,60.7379070,11.4837690,,,0,
761015909,,Oppegårdstuen,,60.7412800,11.4762130,,,0,
761015910,,Damvegen,,60.7429080,11.4736960,,,0,
761015912,,Dalen,,60.7406730,11.5055070,,,0,
761015914,,Oppegård,,60.7385980,11.4957670,,,0,
761015916,,Slettmoen,,60.8300670,11.3148340,,,0,
761015917,,Solbakken,,60.7938040,11.3526100,,,0,
761015918,,Stabberud,,60.8447950,11.3792940,,,0,
761015919,,Stubberud,,60.8021130,11.3967880,,,0,
761015920,,Tangnes,,60.8260650,11.3707830,,,0,
761015921,,Østnes,,60.8277170,11.3805460,,,0,
761015922,,Tofsrud,,60.7959750,11.2661670,,,0,
761015923,,Trømnes,,60.7953190,11.3672040,,,0,
761015924,,Vea,,60.8040160,11.3849070,,,0,
761015925,,Færgen,,60.8065340,11.3765270,,,0,
761015926,,Vealund,,60.8007430,11.3840020,,,0,
761015927,,Ingstad,,60.7997280,11.3793490,,,0,
761015930,,Ånestad bru,,60.8461420,11.3583540,,,0,
761015932,,Birkelymoen,,60.8016320,11.2428530,,,0,
761015933,,Birkely,,60.7995000,11.2525380,,,0,
761015934,,Hov midtre,,60.8244860,11.3641170,,,0,
761015935,,Lersveen,,60.8461230,11.3733180,,,0,
761015936,,Østreng,,60.8395270,11.3844980,,,0,
761015937,,Gata,,60.6846200,11.3447770,,,0,
761015938,,Sykehjemmet,,60.6943930,11.3304460,,,0,
761015940,,Gata nord,,60.6878170,11.3423530,,,0,
761015941,,Korsbakken,,60.7115520,11.2906830,,,0,
761015942,,Malungen,,60.5778310,11.5026310,,,0,
761015946,,Støa,,60.6529770,11.3974070,,,0,
761015947,,Sjøli,,60.6546900,11.3916600,,,0,
761015949,,Tangen sk.,,60.6162530,11.2599780,,,0,
761015950,,Hovsgrinda,,60.6137730,11.2742790,,,0,
761015951,,Korsgård,,60.7288250,11.2395520,,,0,
761015952,,Hanstad,,60.6359100,11.1917160,,,0,
761015953,,Tangen,,60.6179920,11.2664420,,,0,
761015956,,Åsbygda,,60.7394870,11.3687410,,,0,
761015957,,Åsvang,,60.7188610,11.3504270,,,0,
761015958,,Bratlien,,60.7143710,11.3467250,,,0,
761015959,,Jølstad,,60.7164310,11.3547590,,,0,
761015960,,Ottestad krk.,,60.7580870,11.1462470,,,0,
761015962,,Gubberud,,60.7605820,11.1027580,,,0,
761015964,,Ottestad prestegård,,60.7622030,11.1371580,,,0,
761015965,,Ottestad sentral,,60.7641600,11.1326260,,,0,
761015966,,Romedal sentrum,,60.7361600,11.2928590,,,0,
761015967,,Romedal u.sk.,,60.7317500,11.2933690,,,0,
761015970,,Romedal Brænderi,,60.7339780,11.2647290,,,0,
761015971,,Brynsåsen,,60.7363740,11.3008360,,,0,
761015972,,Dal,,60.7353360,11.2395830,,,0,
761015973,,Romedal rv. 3,,60.7314070,11.2940050,,,0,
761015974,,Sørum,,60.6921620,11.1305120,,,0,
761015975,,Usthøgda,,60.7206570,11.2001660,,,0,
761015976,,Solgård,,60.7857590,11.1457640,,,0,
761015978,,Bjørkholsbakken,,60.7404100,11.3375630,,,0,
761015979,,Solheim,,60.6979220,11.1816640,,,0,
761015980,,Stange sykehjem,,60.7165030,11.1834930,,,0,
761015982,,Frisholm,,60.6976850,11.1934650,,,0,
761015983,,Navneberget,,60.7160640,11.2075520,,,0,
761015984,,Smedstad,,60.7438960,11.1993530,,,0,
761015986,,Tokstadtunet,,60.7749820,11.1007630,,,0,
761015987,,Stange rådhus,,60.7161060,11.1912020,,,0,
761015988,,Ottestad stasjon,,60.7469410,11.1350240,,,0,
761015989,,Stange skysstasjon,,60.7174840,11.1949070,,,0,
761015990,,Stange ungdomsskole,,60.7182850,11.1887460,,,0,
761015991,,Stange vgs.,,60.7153630,11.2026090,,,0,
761015995,,Høgåstorvet,,60.7064130,11.3853310,,,0,
761015996,,Kjonerud,,60.7825810,11.1103730,,,0,
761015998,,Breidablikk,,60.7741200,11.1161530,,,0,
761015999,,Kvilavegen,,60.7748600,11.1203890,,,0,
761016000,,Hobergvegen,,60.7754550,11.1248360,,,0,
761016001,,Linjevegen 38,,60.7798190,11.1255470,,,0,
761016002,,Åkershagan,,60.7837180,11.1202950,,,0,
761016005,,Bessa,,60.7716750,11.1202150,,,0,
761016006,,Hagavegen,,60.7803270,11.1131820,,,0,
761016007,,Statsminister Otto Blehrs veg,,60.7782250,11.1160560,,,0,
761016008,,Hoberg skole,,60.7714160,11.1349630,,,0,
761016009,,Bekkelaget,,60.7844620,11.1061970,,,0,
761016010,,Ilevegen,,60.7839160,11.1231180,,,0,
761016011,,Rosevegen,,60.7827030,11.1238460,,,0,
761016012,,Lyngvegen,,60.7760160,11.1285100,,,0,
761016013,,Jørgen Jensens veg,,60.7834130,11.1141570,,,0,
761016015,,Amundrud,,60.6742900,11.3647340,,,0,
761016016,,Brubakken,,60.6497230,11.3911270,,,0,
761016017,,Hagenhytta,,60.6374050,11.4162580,,,0,
761016018,,Bundtjern,,60.5881460,11.4730600,,,0,
761016019,,Egerom,,60.7004510,11.3265060,,,0,
761016020,,Vallset skole,,60.6809960,11.3414180,,,0,
761016021,,Tomter,,60.6990780,11.3353300,,,0,
761016022,,Gammelgrinda,,60.6724780,11.3706790,,,0,
761016023,,Nordseth,,60.6649250,11.3827910,,,0,
761016024,,Olsen,,60.6678350,11.3782460,,,0,
761016025,,Rognstad,,60.6606600,11.3882950,,,0,
761016026,,Stormorken,,60.6697350,11.3739010,,,0,
761016030,,Haraset,,60.6622890,11.3865490,,,0,
761016031,,Harasjøen,,60.6025470,11.4622860,,,0,
761016032,,Hosmestad,,60.7453310,11.1682400,,,0,
761016033,,Lillevold,,60.7420390,11.1767870,,,0,
761016035,,Lunde,,60.7239760,11.1905280,,,0,
761016036,,Muset,,60.7063060,11.3120830,,,0,
761016037,,Nesten,,60.7304880,11.1873580,,,0,
761016038,,Nygård,,60.7240600,11.2479300,,,0,
761016039,,Optjernstøen,,60.6305270,11.4363510,,,0,
761016040,,Rasen,,60.5503960,11.5103970,,,0,
761016041,,Mattisdammen,,60.5173680,11.5112100,,,0,
761016042,,Rasensjøen,,60.5218730,11.5100830,,,0,
761016043,,Reinsvoll,,60.7239040,11.2576560,,,0,
761016044,,Sjøenden,,60.6145020,11.4642390,,,0,
761016045,,Skjelvenga,,60.7346230,11.1832920,,,0,
761016046,,Tomropvika,,60.6364060,11.4187260,,,0,
761016047,,Uthuskrysset,,60.7236480,11.2334150,,,0,
761016048,,Vevlakrysset,,60.7529830,11.1582020,,,0,
761016049,,Tønseth,,60.7695730,11.1276600,,,0,
761016050,,Sæterbakken,,60.6669270,11.3498230,,,0,
761016052,,Bryhnisvea,,60.7220920,11.2670460,,,0,
761016053,,Bryhnitjernet,,60.7169340,11.2762530,,,0,
761016054,,Stange krk.,,60.7101630,11.1381920,,,0,
761016056,,Finstad,,60.7217750,11.2114280,,,0,
761016058,,Breidablikk skole,,60.7773550,11.2415790,,,0,
761016059,,Kvitbrua,,60.7727580,11.2210190,,,0,
761016060,,Sande,,60.7644200,11.2141260,,,0,
761016062,,Ilseng,,60.7758900,11.2216220,,,0,
761016065,,Arneberget,,60.7575260,11.1892910,,,0,
761016066,,Arneberg,,60.7567290,11.2115760,,,0,
761016067,,Arnsveen,,60.6426580,11.2198310,,,0,
761016068,,Arstad skole,,60.7713280,11.1132330,,,0,
761016069,,Basterudkrysset,,60.7702900,11.1637740,,,0,
761016070,,Bergli,,60.7623750,11.2993940,,,0,
761016071,,Billitt,,60.6981770,11.1609760,,,0,
761016072,,Bjertingstad,,60.6490590,11.3401050,,,0,
761016073,,Bjørnholvegen,,60.7738720,11.2302790,,,0,
761016074,,Bjørnstad,,60.6551280,11.3454500,,,0,
761016075,,Bratvoldsengen,,60.7318120,11.3096070,,,0,
761016077,,Bronken,,60.7658620,11.2755900,,,0,
761016079,,Bruvoll,,60.7583850,11.0851760,,,0,
761016082,,Solvin sk.,,60.7334980,11.2602750,,,0,
761016083,,Ekeberg,,60.6507450,11.1902720,,,0,
761016084,,Ellingrud,,60.6385540,11.3043380,,,0,
761016085,,Søndre Elton,,60.7324300,11.1188550,,,0,
761016086,,Nordre Elton,,60.7472800,11.1215050,,,0,
761016087,,Engelberg,,60.7283820,11.3154130,,,0,
761016088,,Fagerhaug,,60.6557430,11.3043580,,,0,
761016089,,Filsetkrysset,,60.7225190,11.3302110,,,0,
761016090,,Fjellberg,,60.6096190,11.2834160,,,0,
761016091,,Fjetre,,60.7617800,11.0845160,,,0,
761016092,,Foss,,60.6630100,11.3504900,,,0,
761016093,,Fredheim,,60.6776280,11.2947350,,,0,
761016094,,Haug,,60.7458000,11.2763520,,,0,
761016095,,Fredsvold,,60.7437520,11.2863910,,,0,
761016096,,Frenning,,60.7556690,11.2354210,,,0,
761016097,,Frenningsmoen,,60.7197000,11.2951690,,,0,
761016098,,Frydenlund,,60.6330600,11.2320440,,,0,
761016099,,Furulund,,60.6222990,11.2925380,,,0,
761016100,,Furuset,,60.7303010,11.3619560,,,0,
761016101,,Domstad,,60.7262080,11.3569970,,,0,
761016102,,Gaustad gård,,60.7579190,11.2614060,,,0,
761016104,,Grimerud,,60.7402110,11.1355870,,,0,
761016105,,Grylling,,60.6605800,11.3032210,,,0,
761016106,,Grønstad,,60.7042660,11.1843110,,,0,
761016107,,Knutsens verksted,,60.7719230,11.2661570,,,0,
761016108,,Harstadkrysset,,60.7652740,11.2642370,,,0,
761016109,,Haugli,,60.7864300,11.1378170,,,0,
761016110,,Hegsvold,,60.7520030,11.1026740,,,0,
761016111,,Hemstad,,60.6986120,11.1314520,,,0,
761016114,,Hekneby,,60.7118720,11.3672390,,,0,
761016115,,Snekkersveen,,60.6659240,11.2065520,,,0,
761016116,,Hellum,,60.6708070,11.2034990,,,0,
761016117,,Herkestad,,60.7413790,11.1111890,,,0,
761016118,,Herredsvang,,60.7514800,11.2661830,,,0,
761016119,,Romedal prestegård,,60.7508660,11.2578620,,,0,
761016120,,Hjermstad,,60.7010570,11.1626910,,,0,
761016121,,Holakrysset,,60.7643470,11.1552760,,,0,
761016122,,Hornekrysset,,60.7673680,11.2160560,,,0,
761016123,,Hornsveen,,60.6918300,11.2905810,,,0,
761016124,,Husekrysset,,60.7530780,11.2804650,,,0,
761016125,,Huse,,60.7045020,11.2054580,,,0,
761016126,,Galgumkrysset,,60.7321590,11.2511930,,,0,
761016127,,Hørsand gård,,60.7829130,11.2731440,,,0,
761016128,,Hørsand bru,,60.7804760,11.2724190,,,0,
761016129,,Hågenrud,,60.6733930,11.2976730,,,0,
761016130,,Hågenrud sk.,,60.6693990,11.2999890,,,0,
761016131,,Ile,,60.6928790,11.1430710,,,0,
761016133,,Jynge,,60.7716750,11.0865540,,,0,
761016134,,Jønsberg vgs.,,60.7516780,11.2067330,,,0,
761016135,,Karstenstua,,60.7422450,11.2390740,,,0,
761016136,,Kjeverud sk.,,60.7474020,11.1092360,,,0,
761016138,,Korslund,,60.7144810,11.1315500,,,0,
761016139,,Lillebo,,60.7756460,11.1472010,,,0,
761016140,,Lund,,60.7072530,11.1677990,,,0,
761016141,,Lundby,,60.6189920,11.2593840,,,0,
761016142,,Løken gård,,60.7615360,11.2632210,,,0,
761016143,,Løkenhagen,,60.7755660,11.2679020,,,0,
761016144,,Løvbakken,,60.7552910,11.1776300,,,0,
761016145,,Utsikten,,60.7072910,11.3474730,,,0,
761016147,,Mosebekken,,60.6287310,11.2379790,,,0,
761016148,,Nedre Kåterud,,60.7870560,11.1301240,,,0,
761016149,,Nordby,,60.7767030,11.0900210,,,0,
761016150,,Hjørnet,,60.6360050,11.3325570,,,0,
761016151,,Nordstad,,60.6409530,11.3374140,,,0,
761016152,,HIAS,,60.7669530,11.0845390,,,0,
761016154,,Nordsveen Sandvika,,60.7693330,11.0856860,,,0,
761016156,,Nymoen,,60.6834680,11.2935750,,,0,
761016157,,Nødsle,,60.6884690,11.1951830,,,0,
761016158,,Nøkleholm,,60.6989100,11.2073650,,,0,
761016159,,Nøttestadkrysset,,60.7451930,11.1097880,,,0,
761016160,,Onsum,,60.7222060,11.1254240,,,0,
761016162,,Vestli,,60.7171710,11.1290150,,,0,
761016163,,Osvold,,60.7118230,11.1523800,,,0,
761016164,,Oustad,,60.6566200,11.2070860,,,0,
761016165,,Rekstad,,60.7040020,11.1290600,,,0,
761016166,,Rognerud,,60.7574960,11.1035840,,,0,
761016167,,Rosenlund,,60.7734570,11.2444290,,,0,
761016168,,Røhne,,60.7525600,11.2494110,,,0,
761016169,,Røhnekorset,,60.6936760,11.2049900,,,0,
761016170,,Sakslund,,60.7284430,11.1261660,,,0,
761016171,,Nybrua,,60.7847400,11.1526230,,,0,
761016172,,Sanderudkrysset,,60.7840120,11.1525740,,,0,
761016173,,Todderud,,60.7771640,11.1601590,,,0,
761016174,,Sanderud sykehus,,60.7824290,11.1595400,,,0,
761016177,,Nordheimsvingen,,60.7798120,11.0998130,,,0,
761016188,,Ideal Wasa,,60.7777750,11.0939660,,,0,
761016190,,Skolevegen 28,,60.7728390,11.1063350,,,0,
761016191,,Steinerskolen (Stange),,60.7770230,11.1022930,,,0,
761016192,,Sjøsveen,,60.6256710,11.3106940,,,0,
761016193,,Tangen Trevare,,60.6029970,11.2942380,,,0,
761016194,,Neptun,,60.5947150,11.2910930,,,0,
761016195,,Skavbakken,,60.6326790,11.2986330,,,0,
761016196,,Skogen,,60.6358760,11.2275390,,,0,
761016197,,Skårås,,60.7009510,11.3421180,,,0,
761016198,,Slagsvold,,60.7680890,11.2495250,,,0,
761016199,,Slettvold,,60.6519390,11.3414850,,,0,
761016200,,Solbakken,,60.6244430,11.2472430,,,0,
761016201,,Solstad,,60.7113530,11.1884770,,,0,
761016202,,Standerholen,,60.7044070,11.2929050,,,0,
761016203,,Stendalen,,60.6462710,11.2164390,,,0,
761016207,,Sørholte sk.,,60.6798170,11.1973400,,,0,
761016208,,Sålerud,,60.7641330,11.1069940,,,0,
761016209,,Såstad,,60.6929280,11.1576940,,,0,
761016210,,Teige,,60.6982840,11.2918460,,,0,
761016211,,Tofastrud,,60.7240260,11.3242310,,,0,
761016213,,Vardebakken,,60.7517780,11.3102350,,,0,
761016214,,Vardeberg,,60.6244810,11.2065340,,,0,
761016215,,A. Veen,,60.7110750,11.1452730,,,0,
761016216,,Veiberg,,60.7770880,11.2393010,,,0,
761016217,,Venholen,,60.7356190,11.2808960,,,0,
761016218,,Vestad,,60.7151450,11.1747470,,,0,
761016219,,Viberg,,60.6646350,11.3039310,,,0,
761016220,,Vie,,60.7545470,11.1718720,,,0,
761016222,,Østby,,60.7562100,11.2217100,,,0,
761016223,,Refsal,,60.7107470,11.3311180,,,0,
761016224,,Øvre Kåterud,,60.7762990,11.1339840,,,0,
761016225,,Åsen Handel,,60.7090150,11.3764870,,,0,
761016227,,Sæther,,60.7461200,11.3310230,,,0,
761016228,,Sørbryn,,60.7726290,11.2932230,,,0,
761016229,,Bryn mølle,,60.7827760,11.2981920,,,0,
761016230,,Mellombryn,,60.7775120,11.2946000,,,0,
761016231,,Nordbryn,,60.7813800,11.2967330,,,0,
761016232,,Bryhn Handel,,60.7646480,11.2867960,,,0,
761016233,,Tanndalsvegen,,60.7740900,11.1542590,,,0,
761016234,,Bakkerudfeltet,,60.7801320,11.1548300,,,0,
761016235,,Dromsrud,,60.6432460,11.1908060,,,0,
761016237,,Austvatn,,60.3788300,11.6917900,,,0,
761016239,,Pilterud,,60.3742640,11.7099910,,,0,
761016240,,Berg,,60.3777730,11.7061820,,,0,
761016241,,Myra idrettsplass,,60.3841630,11.6813760,,,0,
761016242,,Bruvoll,,60.4400290,11.5019290,,,0,
761016243,,Holt/Oppi,,60.4355770,11.5093840,,,0,
761016244,,Knapper,,60.4687580,11.6220480,,,0,
761016245,,Loppetorget,,60.4320490,11.6110930,,,0,
761016246,,Bergstubrua,,60.4651220,11.6404770,,,0,
761016247,,Bergsødegård,,60.4521480,11.6360760,,,0,
761016248,,Vonheim,,60.4313580,11.6248320,,,0,
761016249,,Nordby,,60.4040490,11.6596590,,,0,
761016251,,Holtgård,,60.4835820,11.6150710,,,0,
761016252,,Bekkevold Knapper,,60.4695470,11.6360870,,,0,
761016253,,Knapper skole,,60.4707450,11.6314160,,,0,
761016254,,Skyrud,,60.4903680,11.6162740,,,0,
761016255,,Løkker,,60.4031450,11.4869120,,,0,
761016256,,Per Føsker,,60.4167250,11.4899470,,,0,
761016258,,Sand,,60.3922080,11.5409340,,,0,
761016259,,Bunes,,60.3895300,11.6060330,,,0,
761016260,,Sand bru,,60.3904500,11.5381280,,,0,
761016261,,Rescon,,60.4023590,11.5428150,,,0,
761016262,,Sand sentralskole,,60.3909110,11.5349510,,,0,
761016263,,Dammen Sand,,60.4062000,11.5467470,,,0,
761016264,,Grønnerud,,60.3743400,11.5484310,,,0,
761016265,,Høgbråten,,60.3981480,11.5422510,,,0,
761016266,,Vik,,60.3862500,11.5420300,,,0,
761016269,,Mo kirke,,60.4277880,11.6371930,,,0,
761016270,,Brustad,,60.4352990,11.6371650,,,0,
761016271,,Ødegården,,60.4554940,11.6370940,,,0,
761016272,,Garstad,,60.4325070,11.6385200,,,0,
761016273,,Nord-Odal ungdomsskole,,60.4233820,11.6419590,,,0,
761016274,,Korsholen,,60.4487190,11.4955060,,,0,
761016275,,Bjelker,,60.3385620,11.6090150,,,0,
761016276,,Vilborg,,60.4187050,11.5132070,,,0,
761016277,,Mellom-Breiby,,60.4209440,11.5131440,,,0,
761016278,,Dagfinnrud,,60.4069600,11.5187660,,,0,
761016279,,Gravli,,60.4116900,11.5193860,,,0,
761016280,,Føsker syd,,60.4219820,11.4913120,,,0,
761016281,,Føsker nord,,60.4295850,11.4896960,,,0,
761016282,,Hanord,,60.3620990,11.5754230,,,0,
761016283,,Søndre Haukerud,,60.3308750,11.6138740,,,0,
761016284,,Mellom,,60.3343890,11.6116720,,,0,
761016285,,Helgedagsrud,,60.3239400,11.6183560,,,0,
761016286,,Høiby,,60.4012300,11.6625530,,,0,
761016287,,Sørkedalen,,60.3944660,11.6707130,,,0,
761016288,,Ila,,60.4098170,11.4880030,,,0,
761016289,,Krattebøl,,60.3821680,11.5679710,,,0,
761016290,,Kuggerud,,60.3574410,11.7213430,,,0,
761016292,,Nesset,,60.3786810,11.5413490,,,0,
761016293,,Ringkilen,,60.4521450,11.6215990,,,0,
761016295,,Dalsrud,,60.4496350,11.6176330,,,0,
761016297,,Tannes,,60.4585990,11.6199560,,,0,
761016300,,Rudsjordet,,60.4467890,11.6353150,,,0,
761016303,,Rønningen Austvatn,,60.3901670,11.6767150,,,0,
761016304,,Sandsbråten,,60.4032860,11.5216050,,,0,
761016306,,Vestli,,60.3995820,11.5244420,,,0,
761016307,,Songnes,,60.3535390,11.6015830,,,0,
761016309,,Skjeppestad,,60.4309730,11.5125190,,,0,
761016310,,Skolbekken,,60.4069630,11.6002910,,,0,
761016311,,Soløst,,60.3956220,11.5215390,,,0,
761016312,,Smedstadsvingen,,60.3973270,11.5154080,,,0,
761016314,,Strandhaug,,60.3581390,11.5913950,,,0,
761016315,,Sutterud,,60.3186720,11.6205050,,,0,
761016316,,Svarverud,,60.3419880,11.6061350,,,0,
761016317,,Songnabben,,60.3473550,11.6037000,,,0,
761016318,,Sæther,,60.3977010,11.6058880,,,0,
761016319,,Bruvoll fengsel,,60.4523620,11.5037700,,,0,
761016320,,Vatningsætra,,60.4968680,11.5012840,,,0,
761016321,,Veili,,60.3135380,11.6225390,,,0,
761016322,,Granerud,,60.4108850,11.5607180,,,0,
761016326,,Delbekklia,,60.3988880,11.4998410,,,0,
761016327,,Flikkerud,,60.4154700,11.5141560,,,0,
761016329,,Galterud Løkker,,60.4027020,11.4933240,,,0,
761016331,,Myrhagen,,60.4446640,11.4609410,,,0,
761016332,,Lie bru,,60.4392510,11.4792000,,,0,
761016334,,Rudsbråten,,60.4124530,11.4878410,,,0,
761016337,,Stenshagen,,60.3965800,11.5089410,,,0,
761016338,,Stenskjær,,60.4254230,11.5132710,,,0,
761016339,,Moen landhandel,,60.4412000,11.4811490,,,0,
761016341,,Fjellkrysset,,60.4262080,11.5904170,,,0,
761016342,,Dambrua,,60.4098970,11.6527620,,,0,
761016343,,Bråten,,60.3815000,11.5926160,,,0,
761016344,,Fjellstad,,60.4298170,11.6030990,,,0,
761016345,,Fløytdammen,,60.4563670,11.4384370,,,0,
761016346,,Trautfeltet,,60.4524650,11.4553660,,,0,
761016347,,Gardvikåsen,,60.4184610,11.6469010,,,0,
761016349,,Kretavegen,,60.4425890,11.6123210,,,0,
761016350,,Mosenteret,,60.4242320,11.6403030,,,0,
761016351,,Rudsdammen,,60.4393730,11.6370230,,,0,
761016352,,Ruud,,60.4438210,11.6373650,,,0,
761016353,,Ødegård Fjell,,60.4264530,11.5950520,,,0,
761016355,,Grinna,,60.4601670,11.6393640,,,0,
761016356,,Harald Stormoens veg,,60.4287450,11.6333080,,,0,
761016357,,Ilgohaugen,,60.3674770,11.5624250,,,0,
761016358,,Løvseth,,60.4128420,11.4752280,,,0,
761016359,,Myhrer,,60.4358100,11.6125390,,,0,
761016361,,Nordstrand,,60.3633500,11.7182810,,,0,
761016362,,Rovelstad,,60.4429020,11.4712070,,,0,
761016364,,Sletholen,,60.4519880,11.4426010,,,0,
761016365,,Sørli,,60.4325490,11.4883580,,,0,
761016366,,Thoner,,60.4375530,11.5706510,,,0,
761016367,,Trauten,,60.4469570,11.4768250,,,0,
761016368,,Verket,,60.4227520,11.4528340,,,0,
761016369,,Vestby,,60.4505880,11.4698820,,,0,
761016371,,Galterud Mat,,60.1952820,11.8830850,,,0,
761016372,,Bjørkli,,60.1918490,11.8636210,,,0,
761016373,,Spetalen,,60.1924860,11.9000010,,,0,
761016374,,Strumse,,60.1943090,11.8728580,,,0,
761016375,,Brustad,,60.1911700,11.8560010,,,0,
761016376,,Kolsrud,,60.1926080,11.8451010,,,0,
761016377,,Flinterud,,60.1928940,11.8389190,,,0,
761016378,,Krogsrud,,60.1979140,11.8385580,,,0,
761016379,,Veslemoen,,60.2021640,11.8464350,,,0,
761016380,,Veltasvingen,,60.2057420,11.8614030,,,0,
761016382,,Sander fv 175,,60.2271770,11.8093710,,,0,
761016383,,Bråten,,60.2322620,11.7890660,,,0,
761016384,,Sander E16,,60.2346770,11.8205810,,,0,
761016385,,Hansstumoen,,60.2309340,11.7952950,,,0,
761016386,,Hernes,,60.2199400,11.8387300,,,0,
761016387,,Sundby,,60.2311170,11.8270150,,,0,
761016388,,Skoglivegen,,60.2244260,11.8222660,,,0,
761016389,,Sander sentralskole,,60.2271080,11.8117680,,,0,
761016390,,Sanderhavna boligfelt,,60.2223210,11.7998700,,,0,
761016391,,Sander fv 210,,60.2321240,11.8159370,,,0,
761016392,,Herneshagen,,60.2156220,11.8493890,,,0,
761016393,,Damlia,,60.2226940,11.8314180,,,0,
761016394,,Rønningen Sander,,60.2203900,11.7832540,,,0,
761016395,,Nerli,,60.2229920,11.7648530,,,0,
761016396,,Carl Berners plass,,60.2288550,11.7525410,,,0,
761016397,,Gjelsnes,,60.2339360,11.7810610,,,0,
761016406,,Os bru,,60.2596090,11.6822600,,,0,
761016410,,Åberg,,60.2153820,11.6733190,,,0,
761016411,,Tronbøl,,60.2460560,11.6776630,,,0,
761016412,,Skarnes idrettshall,,60.2583500,11.6707310,,,0,
761016413,,Skarnes Korsmo,,60.2558020,11.6745550,,,0,
761016414,,Skarnes Kaffebrenneri,,60.2545970,11.6898040,,,0,
761016415,,Bøssmyra gartneri,,60.2630730,11.6592000,,,0,
761016416,,Solbakken folkehøyskole,,60.2585870,11.6915240,,,0,
761016419,,Slåstad,,60.2834130,11.7708240,,,0,
761016420,,Slåstad sentralskole,,60.2810100,11.7706390,,,0,
761016421,,Åkroken,,60.1499710,11.6544530,,,0,
761016423,,Disenå skole Finnholtvegen,,60.1974140,11.6402220,,,0,
761016424,,Disenå,,60.2064780,11.6424130,,,0,
761016425,,Disen søndre,,60.2082140,11.6540520,,,0,
761016426,,Slettbakkvegen,,60.2018470,11.6174410,,,0,
761016427,,Maarud fabrikker,,60.1817090,11.5670480,,,0,
761016429,,Fulusagen,,60.2301860,11.8457580,,,0,
761016430,,Fulumoen,,60.2243880,11.8563450,,,0,
761016431,,Fululykkja,,60.2085950,11.8942560,,,0,
761016432,,Store Fulu,,60.2110820,11.8840220,,,0,
761016433,,Knutsrud,,60.2162020,11.8687790,,,0,
761016434,,Steinbakken,,60.2187460,11.8641430,,,0,
761016436,,Sandnesmoen,,60.2337110,11.6678750,,,0,
761016437,,Togstadkrysset,,60.2425920,11.6680560,,,0,
761016439,,Hylterud,,60.2085110,11.6065820,,,0,
761016440,,Bakli,,60.2685430,11.6499500,,,0,
761016441,,Borgen,,60.2728960,11.6519480,,,0,
761016443,,Bygningen,,60.3060990,11.7396840,,,0,
761016444,,Holmen,,60.3171200,11.7335990,,,0,
761016445,,Einerud,,60.2425990,11.7121120,,,0,
761016446,,Jerstad,,60.2590030,11.7539160,,,0,
761016448,,Høgholen,,60.1791530,11.5890670,,,0,
761016449,,Kjelsbøl,,60.2386280,11.7230950,,,0,
761016450,,Krakerud,,60.2385640,11.7673050,,,0,
761016451,,Lukmoen,,60.2326620,11.6776900,,,0,
761016454,,Rønningen Slåstad,,60.2972150,11.7573130,,,0,
761016455,,Sanddalen,,60.2354890,11.8009410,,,0,
761016457,,Skarnesbråten,,60.2483410,11.7023040,,,0,
761016458,,Slåstadseter,,60.3406070,11.7198680,,,0,
761016459,,Våltorpsvingen,,60.3231580,11.7347920,,,0,
761016460,,Øktner,,60.2412110,11.7144740,,,0,
761016462,,Engebråten,,60.3041310,11.6358150,,,0,
761016465,,Nylend,,60.3042680,11.6787340,,,0,
761016470,,Strøm prestegård,,60.2453730,11.7635240,,,0,
761016471,,Mobekk,,60.2531200,11.7088620,,,0,
761016472,,Viken,,60.3015330,11.7060450,,,0,
761016474,,Antona,,60.2175480,11.6378330,,,0,
761016475,,Ullern gård,,60.2155000,11.6324680,,,0,
761016476,,Antona nord,,60.2196540,11.6453160,,,0,
761016477,,Ullern krk.,,60.2129710,11.6353710,,,0,
761016478,,Nyhusgrenda,,60.2108840,11.6612360,,,0,
761016479,,Ringstad,,60.1832920,11.6396650,,,0,
761016480,,Tjernsmo,,60.1749840,11.5807870,,,0,
761016481,,Kvedalen,,60.3205830,11.6541320,,,0,
761016483,,Ringnes,,60.2898290,11.6636900,,,0,
761016484,,Norderud,,60.2870520,11.6619620,,,0,
761016485,,Oppstad bru,,60.2983780,11.6669390,,,0,
761016486,,Oppstad bru vest,,60.2976460,11.6645250,,,0,
761016487,,Delbekk,,60.2908020,11.6436820,,,0,
761016489,,Vangen,,60.2934680,11.7221020,,,0,
761016490,,Bruneset,,60.2123600,11.6235150,,,0,
761016491,,Bjørkes smie,,60.2054560,11.5969720,,,0,
761016492,,Galgeberg,,60.2464220,11.6684760,,,0,
761016493,,Perstuen,,60.2317620,11.6323100,,,0,
761016494,,Steinhuset,,60.2385180,11.6522930,,,0,
761016495,,Varlivegen,,60.2430950,11.6385510,,,0,
761016496,,Sandnes,,60.2267800,11.6605920,,,0,
761016497,,Spikset gård,,60.2425230,11.6460220,,,0,
761016498,,Ullern sk.,,60.2263870,11.6334320,,,0,
761016499,,Oleaberget,,60.2288020,11.5993970,,,0,
761016500,,Mangset,,60.2378390,11.7399430,,,0,
761016501,,Nyjordet,,60.2385560,11.7586670,,,0,
761016502,,Liset,,60.2255360,11.6816230,,,0,
761016505,,Hauergrinda,,60.2304530,11.6199040,,,0,
761016506,,Aulibrenna,,60.3074870,11.6395620,,,0,
761016507,,Aulimyra,,60.3147740,11.6390460,,,0,
761016508,,Løkka,,60.3118440,11.6611010,,,0,
761016509,,Søndre Auli,,60.3016360,11.6590940,,,0,
761016510,,Bekken,,60.3027650,11.7491820,,,0,
761016511,,Bekkevold,,60.3106270,11.6275210,,,0,
761016512,,Berger,,60.3224790,11.6541230,,,0,
761016513,,Borgenholt,,60.2789080,11.6504640,,,0,
761016521,,Gaustad,,60.3078540,11.6323490,,,0,
761016522,,Glomsås,,60.2893100,11.7386770,,,0,
761016523,,Granheim,,60.3462680,11.7172940,,,0,
761016524,,Granum,,60.1578900,11.6291190,,,0,
761016525,,Haugslia,,60.1703990,11.6111690,,,0,
761016526,,Herud,,60.2664950,11.7592120,,,0,
761016527,,Hyttmarken,,60.1532520,11.6373450,,,0,
761016528,,Inngjerdselen,,60.2850570,11.6474880,,,0,
761016532,,Melstrøm,,60.2426610,11.7819630,,,0,
761016533,,Nordsethagen,,60.2733690,11.7655790,,,0,
761016534,,Odals verk,,60.2502820,11.8595960,,,0,
761016535,,Tjaberg,,60.2443920,11.8448050,,,0,
761016536,,Dammen,,60.2361760,11.8495480,,,0,
761016537,,Hammer,,60.2409100,11.8346180,,,0,
761016538,,Børstad,,60.2373850,11.8267240,,,0,
761016539,,Olsrud,,60.2328260,11.6362080,,,0,
761016541,,Ringsås,,60.3389210,11.6440770,,,0,
761016542,,Skredderstua,,60.3066980,11.6869910,,,0,
761016543,,Solberg,,60.2219660,11.6075780,,,0,
761016544,,Blådammen,,60.3512190,11.7210240,,,0,
761016546,,Sætersagen sk.,,60.1735460,11.6450490,,,0,
761016547,,Tovsetbråten,,60.1638490,11.6181840,,,0,
761016548,,Trosvika,,60.3296700,11.6530040,,,0,
761016549,,Tømterud,,60.2979130,11.6402920,,,0,
761016550,,Veflen,,60.2624400,11.7567370,,,0,
761016551,,Vestby,,60.2818830,11.6611610,,,0,
761016552,,Øverby,,60.1725500,11.5986630,,,0,
761016553,,Mellem,,60.1771240,11.5921550,,,0,
761016559,,Tuhusporta,,59.9809680,12.1065450,,,0,
761016560,,Repsethåsen,,59.9762000,12.1185950,,,0,
761016561,,Eidskog ungdomsskole,,59.9832150,12.1252620,,,0,
761016562,,Skotterud brannstasjon,,59.9826320,12.1266600,,,0,
761016563,,Halbekken nord,,59.9797590,12.1319110,,,0,
761016564,,Halbekken sør,,59.9772610,12.1394930,,,0,
761016565,,Skotterud skole,,59.9853670,12.1361000,,,0,
761016566,,Skotterud sentrum,,59.9869800,12.1252050,,,0,
761016567,,Sjøli,,60.0014760,12.1206700,,,0,
761016568,,Raggen,,60.0072780,12.1200150,,,0,
761016569,,Grasmo Matrand,,60.0126690,12.1196260,,,0,
761016570,,Tollefsbøl oppvekstsenter,,59.9725150,12.0622280,,,0,
761016571,,Stangeskovene Volden,,59.9743840,12.0579550,,,0,
761016572,,Tobøl bad,,59.9770620,12.0606580,,,0,
761016573,,Lilleseth,,59.9796680,12.0649330,,,0,
761016577,,Buåa,,59.9364130,11.9921770,,,0,
761016580,,Stangnessætervegen,,59.9386410,11.9996480,,,0,
761016581,,Vestmarka,,59.9309430,11.9920060,,,0,
761016582,,Jerpsetvegen,,59.9429590,12.0018830,,,0,
761016583,,Vestmarka sentralskole,,59.9264870,11.9923930,,,0,
761016584,,Hauga riksgrensen,,59.8990020,11.9868950,,,0,
761016585,,Kulblik,,59.9057880,11.9850890,,,0,
761016586,,Klanderudvegen,,59.9125750,11.9842850,,,0,
761016587,,Sæterstua,,59.9226990,11.9890790,,,0,
761016588,,Rastad,,59.9514240,12.0101190,,,0,
761016589,,Åbogen,,60.1128460,12.1163960,,,0,
761016590,,Posteringsbrua,,60.1209070,12.1091270,,,0,
761016591,,Nordre Pramhus,,60.1035920,12.1346700,,,0,
761016592,,Maridal,,59.9448740,12.2047990,,,0,
761016593,,Eidskog Mekaniske,,59.9582520,12.1913250,,,0,
761016594,,Magnoråsen,,59.9577330,12.1992860,,,0,
761016595,,Skolevegen,,59.9500920,12.1953590,,,0,
761016596,,Magnor skole,,59.9460870,12.1714180,,,0,
761016597,,Magnor Hydro,,59.9501110,12.2020440,,,0,
761016598,,Magnor stasjon,,59.9519650,12.2026170,,,0,
761016599,,Enderudkrysset,,60.1042020,12.2128970,,,0,
761016601,,Filadelfia Børrud,,59.9822160,12.0748690,,,0,
761016602,,Gjelleråsen,,59.9798510,12.0914690,,,0,
761016603,,Gærversvingen,,59.9840510,12.0662710,,,0,
761016604,,Grasmo bru,,60.0506360,12.1393300,,,0,
761016605,,Grasmo gård,,60.0564770,12.1427060,,,0,
761016606,,Jerntjernsbråten,,60.0452650,12.1284890,,,0,
761016607,,Holsæterkrysset,,60.1317290,12.2352730,,,0,
761016609,,Nevjen,,59.9679220,12.2226930,,,0,
761016610,,Gjøvikavegen,,59.9613650,12.2089550,,,0,
761016612,,Stangnes,,59.9593280,12.0399900,,,0,
761016614,,Matrand sk.,,60.0306780,12.1213980,,,0,
761016615,,Matrand krk.,,60.0299450,12.1231600,,,0,
761016616,,Matrand,,60.0270350,12.1234600,,,0,
761016617,,Grønnerud,,60.0143390,12.1317920,,,0,
761016618,,Skubbersenga,,60.0369110,12.1235130,,,0,
761016619,,Rudberg,,60.0056690,12.0797940,,,0,
761016620,,Sørpebøl,,60.0003320,12.0909050,,,0,
761016621,,Skinnpungrud,,60.0344390,12.0929620,,,0,
761016622,,Skinnpungrudkrysset,,60.0223120,12.0973760,,,0,
761016623,,Skulstad,,60.0232770,12.1068380,,,0,
761016624,,Berger,,60.0101170,12.0921960,,,0,
761016625,,Finnsrud,,59.9975430,12.3171860,,,0,
761016626,,Skarshaug,,60.0105550,12.3028940,,,0,
761016627,,Rokstad,,59.9922180,12.3299090,,,0,
761016628,,Bekkengen,,59.9893950,12.3363520,,,0,
761016629,,Fagerli,,59.9825290,12.3384410,,,0,
761016630,,Granli,,59.9967800,12.3099690,,,0,
761016631,,Ilagsmoen,,59.9717860,12.1635510,,,0,
761016632,,Nystuen,,59.9800660,12.1705820,,,0,
761016633,,Ilag,,59.9843830,12.1745280,,,0,
761016634,,Tuhus,,59.9679910,12.1730660,,,0,
761016635,,Walmann,,59.9745370,12.1542220,,,0,
761016636,,Øiongen,,60.1015170,12.1742470,,,0,
761016638,,Ingelsrud,,59.9390300,12.0755770,,,0,
761016640,,Nessjøen,,59.9934960,12.2227070,,,0,
761016641,,Gransæter,,59.9799580,12.2327940,,,0,
761016642,,Åsen,,59.9731980,12.2281190,,,0,
761016643,,Holtet,,59.9757080,12.2301740,,,0,
761016644,,Nesgården,,59.9967120,12.2065320,,,0,
761016646,,Klanderud Nessjøen,,59.9866940,12.2439790,,,0,
761016647,,Stranda,,59.9851650,12.2359030,,,0,
761016648,,Nygård,,59.9977680,12.0512340,,,0,
761016649,,Smedtorpet,,59.9874420,12.0684500,,,0,
761016650,,Rinden,,60.0096970,12.0448500,,,0,
761016651,,Fjellkrysset,,60.0187950,12.0539990,,,0,
761016652,,Repshus,,59.9834710,12.1033370,,,0,
761016653,,Korea,,59.9900360,12.0943030,,,0,
761016654,,Rødkjølen,,60.0410770,12.2801090,,,0,
761016656,,Enderud,,60.0725140,12.2384580,,,0,
761016657,,Sandmoen,,60.0507850,12.0360770,,,0,
761016659,,Morokulien,,59.9308780,12.2406360,,,0,
761016660,,Montebello,,59.9341890,12.2284600,,,0,
761016661,,Finnskog Møbler,,59.9367410,12.2203450,,,0,
761016662,,Gaustad (Eidskog),,59.9639660,12.1464780,,,0,
761016663,,Sagdalen,,59.9632990,12.1181520,,,0,
761016664,,Sagdalskrysset,,59.9672510,12.1212120,,,0,
761016665,,Gusterudmoen,,60.0417630,12.0387330,,,0,
761016666,,Larsmoen,,60.0355570,12.0374790,,,0,
761016667,,Nord Fjeld,,60.0293160,12.0427240,,,0,
761016668,,Buholtet,,60.0821760,12.0271120,,,0,
761016669,,Dal stasjon,,60.0752450,12.0221970,,,0,
761016672,,Rauhella,,60.0898400,12.0271500,,,0,
761016673,,Dal,,60.0612410,12.1220750,,,0,
761016674,,Malmermoen,,60.0937310,12.0720730,,,0,
761016675,,Tjernsli,,60.0772360,12.0915410,,,0,
761016676,,Seterlien,,60.0666890,12.1133500,,,0,
761016677,,Brenna,,60.0565110,12.1272890,,,0,
761016678,,Bråta,,60.0863230,12.1534460,,,0,
761016679,,Persmoen,,60.0735590,12.1514180,,,0,
761016681,,Snekkermoen,,60.0674670,12.1476000,,,0,
761016682,,Holmgård,,60.4825900,12.0020710,,,0,
761016686,,Skara,,60.3995090,12.0066330,,,0,
761016689,,Grue aldershjem,,60.4503710,12.0772170,,,0,
761016692,,Prestgardsgutua,,60.4650500,12.0322230,,,0,
761016693,,Refsethøgda,,60.4679450,12.0011730,,,0,
761016694,,Sankerudsholtet,,60.4548190,11.9626500,,,0,
761016695,,Steinerud,,60.4636760,11.9839830,,,0,
761016697,,Bergesida boligfelt,,60.4520490,12.0986040,,,0,
761016698,,Gamle Kongeveg,,60.4602700,12.0464590,,,0,
761016699,,Grue skole,,60.4508780,12.0563110,,,0,
761016700,,Kirkenær stasjon,,60.4577670,12.0610340,,,0,
761016701,,Grue rådhus,,60.4514390,12.0533440,,,0,
761016702,,Grøset søndre,,60.4782330,12.0720480,,,0,
761016703,,Oppset sør,,60.4295650,12.0085560,,,0,
761016704,,Svartmoen,,60.4891090,12.0782310,,,0,
761016705,,Torderud,,60.4554980,12.0847620,,,0,
761016706,,Voldsnes,,60.4418830,12.0192240,,,0,
761016709,,Namnå stasjon,,60.4971350,12.0781180,,,0,
761016710,,Namnå skole,,60.4995190,12.0759940,,,0,
761016711,,Namnå Sentrumsgata,,60.4965060,12.0813190,,,0,
761016716,,Finnetunet,,60.4159470,12.3957080,,,0,
761016718,,Svulrya,,60.4187930,12.4046930,,,0,
761016720,,Mo,,60.4145550,12.0318410,,,0,
761016722,,Entrack,,60.4066810,12.0539420,,,0,
761016723,,Grinder,,60.4020040,12.0399360,,,0,
761016724,,Grinder skole,,60.4033580,12.0455110,,,0,
761016725,,Trangsrud,,60.5310630,12.0628690,,,0,
761016726,,Byermo,,60.4702570,12.0670340,,,0,
761016727,,Nøkleberget,,60.4256130,12.0420680,,,0,
761016728,,Alfheim,,60.5246930,12.0640910,,,0,
761016730,,Rusvek,,60.4826810,11.9487890,,,0,
761016731,,Bjerke gård,,60.4115100,12.0075050,,,0,
761016732,,Gammelstubråten,,60.4655990,11.9940780,,,0,
761016733,,Grøset,,60.4907760,12.0776060,,,0,
761016734,,Hinbakken,,60.4164700,12.0079090,,,0,
761016735,,Holtmoen,,60.4845920,11.9860520,,,0,
761016736,,Kjellerhalsen,,60.4719510,11.9496890,,,0,
761016737,,Kvernes,,60.4461210,12.0201820,,,0,
761016739,,Løvhaugsåa,,60.4591140,12.5287150,,,0,
761016740,,Nybakk,,60.5473940,12.0678250,,,0,
761016741,,Olav Ibenholt,,60.5081750,12.0738820,,,0,
761016742,,Opakersund,,60.4232290,12.0098780,,,0,
761016743,,Oppset nord,,60.4343220,12.0110860,,,0,
761016745,,Piksrud,,60.3913040,12.0430960,,,0,
761016746,,Risberget,,60.4555660,11.9701960,,,0,
761016747,,Sørensen,,60.4569630,11.9768540,,,0,
761016748,,Røgden,,60.4179530,12.4501500,,,0,
761016749,,Rønnåsvegen,,60.4883840,11.9756570,,,0,
761016750,,Sjåtil,,60.3759420,12.0452550,,,0,
761016751,,Kilavegen,,60.4374850,12.0431430,,,0,
761016752,,Sundsvingen,,60.4876440,12.0085120,,,0,
761016753,,Svartbekken,,60.4851720,12.5671010,,,0,
761016754,,Vangen,,60.4619670,11.9538960,,,0,
761016756,,Refset sk.,,60.4680940,12.0117050,,,0,
761016757,,Skogdal,,60.4891470,11.9579350,,,0,
761016758,,Tjura,,60.4367290,12.0985270,,,0,
761016759,,Åsvegen,,60.4234200,12.0801200,,,0,
761016760,,Gamlebyen,,60.4110450,12.0719740,,,0,
761016761,,Meldal,,60.3943630,12.3680870,,,0,
761016762,,Skasen øst,,60.3782080,12.3591200,,,0,
761016763,,Skasenden,,60.4290390,12.2650360,,,0,
761016764,,Sæta,,60.3810390,12.0475820,,,0,
761016765,,Delbekk,,60.3721050,12.0188580,,,0,
761016766,,Helgesen,,60.3791540,12.0124140,,,0,
761016767,,Svinøre,,60.4587440,12.0171160,,,0,
761016768,,Botilsrud,,60.4552230,12.0182620,,,0,
761016771,,Tvengsvika,,60.4482350,12.4680630,,,0,
761016772,,Tvengsberget,,60.4530910,12.4895060,,,0,
761016774,,Jansvegen,,60.3901900,12.0129990,,,0,
761016775,,Østmo,,60.3856090,12.0094890,,,0,
761016777,,Sandstad bru,,60.4652710,12.0146090,,,0,
761016778,,Anderstorpet,,60.4541590,12.5026300,,,0,
761016781,,Fisketjernet,,60.4667740,12.5458570,,,0,
761016786,,Lilleåsen,,60.5452730,12.0776030,,,0,
761016788,,Matshus,,60.5006100,12.0883220,,,0,
761016793,,Neverhaugen,,60.4339220,12.4557000,,,0,
761016794,,Opåsvegen,,60.4337430,12.1064600,,,0,
761016795,,Revholtet,,60.4195860,12.4252230,,,0,
761016797,,Sagerud (Grue),,60.5319710,12.0914020,,,0,
761016798,,Smiholen,,60.5151860,12.0878330,,,0,
761016802,,Rismoen,,60.4855690,12.0381810,,,0,
761016804,,Gjevert,,60.4094850,12.3905280,,,0,
761016806,,Søgård,,60.5990490,11.9059030,,,0,
761016808,,Flissundet,,60.6131860,12.0329800,,,0,
761016812,,Flisa rådhus,,60.6131740,12.0132170,,,0,
761016813,,Flisa stasjon,,60.5996890,12.0187390,,,0,
761016814,,Flisa busstasjon,,60.6142460,12.0095330,,,0,
761016815,,Åsnes ungdomsskole,,60.6124380,12.0200210,,,0,
761016816,,Kjellmyra,,60.6454700,12.0409190,,,0,
761016817,,Ole Morønningen,,60.6518060,12.0269300,,,0,
761016818,,Karlottkrysset,,60.6476060,12.0334530,,,0,
761016819,,Holm,,60.6409650,12.0331580,,,0,
761016820,,Bråtebekken,,60.6696400,12.0883430,,,0,
761016821,,Sønsterudmoen,,60.6504140,12.0482490,,,0,
761016822,,Linna riksgrensen,,60.6897620,12.4550780,,,0,
761016823,,Skalbukilen,,60.6675640,12.2014620,,,0,
761016824,,Nymoen Skalbukilen,,60.6682320,12.1836180,,,0,
761016825,,Kilen skole,,60.6658020,12.2109560,,,0,
761016826,,Nymoen Kvisler,,60.5508650,11.9835870,,,0,
761016827,,Velta,,60.6407130,12.2709460,,,0,
761016828,,Høgvelta,,60.6456990,12.2277480,,,0,
761016829,,Elsetrønningen,,60.6417350,12.2338480,,,0,
761016830,,Dæsvegen,,60.6407620,12.2412700,,,0,
761016831,,Vestnes,,60.6385420,12.2568920,,,0,
761016832,,Sandstad,,60.6405490,12.2758690,,,0,
761016834,,Arneberg kirke,,60.5702060,12.0560410,,,0,
761016835,,Kvesetgrenda,,60.5722310,12.0259610,,,0,
761016837,,Bashammeren,,60.6141780,12.0447720,,,0,
761016838,,Arneberg,,60.5606770,12.0605440,,,0,
761016839,,Kvesetmoen handel,,60.5803720,12.0503910,,,0,
761016840,,Åsnes opplæringssenter,,60.5782850,12.0504500,,,0,
761016841,,Jara sk.,,60.5543210,12.0042510,,,0,
761016842,,Baltebølbakken,,60.6082040,12.0446300,,,0,
761016843,,Bjørkåsen,,60.5160100,12.0120370,,,0,
761016844,,Branes snuplass,,60.5355490,11.8796180,,,0,
761016845,,Brattåsen,,60.5573390,11.9697310,,,0,
761016846,,Engebakken,,60.6793440,12.1261670,,,0,
761016847,,Flisbrua,,60.6915250,12.3062210,,,0,
761016849,,Hanshaugen,,60.6772990,12.1414840,,,0,
761016850,,Haslemo stasjon,,60.6246530,11.9411960,,,0,
761016851,,Sjølivegen,,60.6267930,11.9342230,,,0,
761016852,,Haslerud,,60.6174660,11.9639070,,,0,
761016854,,Åsnes gård fv 206,,60.5925790,11.9832730,,,0,
761016855,,Sætre,,60.5952990,12.0506860,,,0,
761016856,,Snålroa,,60.5891570,11.9707730,,,0,
761016857,,Åsnes gård fv 210,,60.5833020,11.9743620,,,0,
761016859,,Lillemoe,,60.6241720,12.0354930,,,0,
761016860,,Dr. Bjørnebys veg,,60.6062700,12.0126640,,,0,
761016861,,Kaffegata,,60.6102640,12.0116110,,,0,
761016862,,Lindstad,,60.6745640,12.1515850,,,0,
761016863,,Nyen nordre,,60.6730650,12.1575370,,,0,
761016864,,Nysted,,60.6719210,12.1641840,,,0,
761016865,,Raudåsen,,60.5335500,11.9194650,,,0,
761016866,,Røyne gård,,60.5564610,12.0172240,,,0,
761016867,,Hof samfunsshus,,60.5528220,12.0219760,,,0,
761016868,,Kjøpm. Løfsgård,,60.5979770,12.0098270,,,0,
761016869,,Kornstad,,60.6782230,12.0276550,,,0,
761016870,,Åsen,,60.6969490,11.9617310,,,0,
761016871,,Gjesåsen,,60.6900370,12.0021040,,,0,
761016872,,Skybakk Gjesåsen,,60.6883320,12.0133050,,,0,
761016873,,Borge,,60.6940040,11.9741050,,,0,
761016874,,Korsmokrysset,,60.5347370,11.9961250,,,0,
761016875,,Kravdalen,,60.6222920,12.0145440,,,0,
761016876,,Krokmovegen,,60.6670270,12.0836060,,,0,
761016877,,Løvåsgrinda,,60.5398330,11.9868020,,,0,
761016878,,Melsnes,,60.6759190,11.9847240,,,0,
761016879,,Moskog,,60.6590230,12.0379140,,,0,
761016880,,Nerstad,,60.6821520,11.9293560,,,0,
761016881,,Nyåbrua,,60.6701430,12.1720300,,,0,
761016882,,Sandmoen travbane,,60.5766560,11.9769650,,,0,
761016883,,Sararud,,60.6292270,12.0261830,,,0,
761016884,,Saureng bru,,60.5360950,12.0278740,,,0,
761016885,,Sjøli,,60.6760900,11.9518270,,,0,
761016886,,Småjenteskogen,,60.6908040,11.9167480,,,0,
761016887,,Skansen,,60.6723630,12.0960580,,,0,
761016888,,Østre Skansen,,60.6773490,12.1057690,,,0,
761016889,,Røsen,,60.6848030,12.0203760,,,0,
761016890,,Skjøthaug,,60.6564900,12.0572080,,,0,
761016891,,Skybakk Sletta,,60.6398050,12.0958410,,,0,
761016892,,Kvernmoen,,60.6953390,12.0072720,,,0,
761016893,,Skyvang Handel,,60.6914180,11.9946280,,,0,
761016894,,Smørbøl,,60.6671910,12.0443250,,,0,
761016895,,Såset,,60.6168400,11.9828260,,,0,
761016896,,Bjerkesmoen,,60.6017990,12.0476990,,,0,
761016897,,Eierholen,,60.5459520,11.9218040,,,0,
761016898,,Åsa grendehus,,60.5439070,11.9125550,,,0,
761016899,,Mosogn,,60.5260810,12.0122430,,,0,
761016900,,Sjørbotn,,60.5249820,11.9250560,,,0,
761016901,,Sønsterud,,60.6614610,12.0689750,,,0,
761016902,,Baksjøen,,60.6582030,12.0162170,,,0,
761016903,,Skogsrud,,60.6656800,12.0053820,,,0,
761016904,,Puterud,,60.6690940,12.0022210,,,0,
761016905,,Kokkin,,60.6638490,12.1188050,,,0,
761016906,,Gjems,,60.6740530,11.9618600,,,0,
761016907,,Framås,,60.6531560,12.0355860,,,0,
761016908,,Sønsterud sk.,,60.6621440,12.0696990,,,0,
761016909,,Kvisler,,60.5553670,11.9831630,,,0,
761016911,,Holtet,,60.6603470,12.2329870,,,0,
761016912,,Vålbekken,,60.6981050,12.3283080,,,0,
761016913,,Vermunddammen,,60.7040790,12.3496080,,,0,
761016914,,Gretvika,,60.7053910,12.3761670,,,0,
761016918,,Jonsrud i Åsnes,,60.6899150,12.4134350,,,0,
761016919,,Olsrudvegen,,60.5526850,11.9375380,,,0,
761016923,,Solør montessoriskole fv 438,,60.5781860,12.0693040,,,0,
761016924,,Bonsak,,60.5521090,12.0822500,,,0,
761016925,,Dal,,60.7268950,12.3124280,,,0,
761016926,,Flisstranda,,60.7420740,12.3076420,,,0,
761016938,,Karlstad,,60.6909260,12.0961210,,,0,
761016939,,Knappum,,60.6353750,12.0450350,,,0,
761016941,,Kynneggen,,60.7137070,12.3061170,,,0,
761016942,,Lotteriet,,60.5853840,11.9201270,,,0,
761016943,,Melby,,60.6144560,11.9886390,,,0,
761016944,,Molberg,,60.6309510,12.0417090,,,0,
761016945,,Nergrenda,,60.6077080,11.9760980,,,0,
761016946,,Nyjordsgrinda,,60.5894360,11.9521110,,,0,
761016947,,Nyland,,60.5871090,12.0810750,,,0,
761016950,,Persbybakken,,60.5282940,11.9764040,,,0,
761016951,,Purkmoen,,60.6891750,11.9406220,,,0,
761016954,,Sakserud,,60.5579870,11.9149170,,,0,
761016955,,Skjellongaléen,,60.5940930,12.0589940,,,0,
761016956,,Skjellongen gård,,60.5942730,12.0609660,,,0,
761016957,,Skoglund,,60.6331330,12.0594020,,,0,
761016958,,Runkundrud,,60.6442830,12.1103980,,,0,
761016959,,Kjellås,,60.6548960,12.1126850,,,0,
761016963,,Åsnes krk.,,60.6098250,11.9758000,,,0,
761016964,,Trangen,,60.6641350,12.1510040,,,0,
761016971,,Haugsbrua,,60.5217630,12.0167460,,,0,
761016972,,Åslia,,60.5963550,12.0942540,,,0,
761016973,,Tronstad,,60.5990030,11.9509210,,,0,
761016974,,Svartbråten,,60.6028820,11.9256730,,,0,
761016975,,Branterud,,60.5941700,11.9675430,,,0,
761016979,,Bergeberget,,61.0049970,11.7834280,,,0,
761016982,,Bergebergskrysset,,61.0103800,11.7903210,,,0,
761016984,,Styggbergskrysset,,61.0119020,11.7999680,,,0,
761016985,,Brustad,,61.0119170,11.7340270,,,0,
761016986,,Svendshaugen,,61.0160900,11.7347940,,,0,
761016987,,Bergheim sk.,,61.0074080,11.7863040,,,0,
761016988,,Skomakeren,,60.7736630,11.7081530,,,0,
761016989,,Bronka v.kr.,,60.7561380,11.7121450,,,0,
761016990,,Sveheim,,60.7650680,11.7066560,,,0,
761016991,,Grinda Rv 25,,60.9191630,11.6547140,,,0,
761016993,,Libakk,,60.9332310,11.5080370,,,0,
761016994,,Grundsetbekken,,60.9220960,11.5132140,,,0,
761016995,,Lille-Grundset,,60.9389310,11.5025410,,,0,
761016996,,Heradsbygd,,60.8227230,11.6381790,,,0,
761016998,,Furuknappen,,60.8425330,11.6558820,,,0,
761016999,,Barmo,,60.8111950,11.6759780,,,0,
761017000,,Houm,,60.8168260,11.6525180,,,0,
761017002,,Mostulåven,,60.8296320,11.6193160,,,0,
761017003,,Opsahl,,60.8270150,11.6382740,,,0,
761017005,,Skjefstadfossen øst,,60.8328170,11.6147740,,,0,
761017006,,Lillemoen sk.,,60.8260380,11.6243030,,,0,
761017007,,Knappen,,60.8382030,11.6103370,,,0,
761017008,,Heradstun,,60.8211020,11.6424050,,,0,
761017009,,Østby,,60.8332560,11.6629340,,,0,
761017010,,Aspens Dagligvare,,60.8233030,11.6305730,,,0,
761017011,,Horndalen,,60.9712030,11.6506250,,,0,
761017013,,Høymodammen,,61.0119740,11.7321440,,,0,
761017014,,Elsmorampa,,60.8097110,11.7202840,,,0,
761017015,,Jømna bru,,60.8071210,11.7160550,,,0,
761017016,,Overgangen,,60.8085330,11.6954690,,,0,
761017018,,Jømna,,60.8067890,11.7079360,,,0,
761017019,,Jømna idrettsplass,,60.8128280,11.6669920,,,0,
761017020,,Kirkeby skole Nordskogbygdvegen,,60.9916840,11.6963140,,,0,
761017021,,Kirkeby skole Linnavegen,,60.9908220,11.6968140,,,0,
761017023,,Rud Kynnberget,,60.9341010,11.8882690,,,0,
761017024,,Lømosund,,60.7995490,11.6864030,,,0,
761017025,,Rogstadkjernet,,60.9256290,11.6670830,,,0,
761017026,,Nøtåsbrua,,60.8417850,11.7063320,,,0,
761017027,,Stensløkken,,60.8171120,11.7226050,,,0,
761017028,,Trehørningen,,60.8264310,11.7197180,,,0,
761017029,,Østmolåven,,60.8368760,11.7158190,,,0,
761017031,,Harabekk,,60.8202780,11.7214020,,,0,
761017032,,Sydhallvegen,,60.8117100,11.7230650,,,0,
761017033,,Melåsberget sk.,,60.8240090,11.7200820,,,0,
761017034,,Tun sagbruk,,60.8323290,11.7178080,,,0,
761017035,,Rølsåsen,,60.8960000,11.7694380,,,0,
761017038,,Kynnbråten,,60.8864840,11.9911530,,,0,
761017039,,Bjørkebekkvegen,,60.9125520,11.9604360,,,0,
761017040,,Åsvegen (Elverum),,60.8998340,11.9813530,,,0,
761017041,,Løvhaugen,,60.9161340,11.9436070,,,0,
761017044,,Evenstad,,60.9529190,11.8291790,,,0,
761017045,,Mattis,,60.9417230,11.8043250,,,0,
761017046,,Myra,,60.9491460,11.8132720,,,0,
761017047,,Paudori,,60.9438020,11.7929650,,,0,
761017048,,Sveengen,,60.9287110,11.7790160,,,0,
761017049,,Sørskogbygda skole,,60.9425770,11.7786750,,,0,
761017050,,Holtet Sørskogbygda,,60.9468420,11.8113510,,,0,
761017051,,Sørskogbygda,,60.9421460,11.7726730,,,0,
761017052,,Moen Sørskogbygda,,60.9444770,11.7868380,,,0,
761017053,,Kalsvevegen,,60.9523580,11.8458840,,,0,
761017054,,Liengen sveiseverksted,,60.9254880,11.7806000,,,0,
761017055,,Skytterbanen Sørskogbygda,,60.9499890,11.8184260,,,0,
761017056,,Olealøkken,,61.0193180,11.3882830,,,0,
761017057,,Holmen,,61.0067520,11.4035640,,,0,
761017058,,Andreassen,,60.9993630,11.4148070,,,0,
761017060,,Rustad nordre,,61.0241200,11.3839980,,,0,
761017061,,Rustad,,61.0127640,11.3968210,,,0,
761017065,,Svanåsen,,60.9782830,11.4904580,,,0,
761017066,,Hernes Statoil,,60.9322170,11.6746310,,,0,
761017067,,Gobakken,,60.9374770,11.6680750,,,0,
761017069,,Hernes skole,,60.9265400,11.6367610,,,0,
761017070,,Herstadkrysset,,60.9403080,11.6212640,,,0,
761017071,,Horna,,60.9502110,11.6728160,,,0,
761017072,,Lille Schulstad,,60.9190860,11.6576970,,,0,
761017073,,Møystad gård,,60.9310990,11.6241980,,,0,
761017074,,Nordhagen,,60.9416120,11.6674790,,,0,
761017075,,Rørgata,,60.9436340,11.6692550,,,0,
761017076,,Smed Støen,,60.9465450,11.6709020,,,0,
761017077,,Østjordet,,60.9275510,11.6475120,,,0,
761017078,,Meljordshagen,,60.9208980,11.6682560,,,0,
761017079,,Langholen,,60.9327700,11.6900920,,,0,
761017081,,Finstad Handel,,60.9315030,11.6648240,,,0,
761017082,,Thorud gård,,60.9360920,11.6209160,,,0,
761017083,,Hernes Handel,,60.9244880,11.6245020,,,0,
761017084,,Vestre Hernes Handel,,60.9497600,11.6026470,,,0,
761017085,,Svevad,,60.9536630,11.6784450,,,0,
761017086,,Rugsvea,,60.9454230,11.6559970,,,0,
761017087,,Madsberget,,61.0479510,11.8943320,,,0,
761017089,,Ulvålia Camping,,61.0235560,11.8616130,,,0,
761017090,,Julussa,,60.9971960,11.7712940,,,0,
761017093,,Næverlivegen,,61.0265850,11.7310130,,,0,
761017094,,Sagmovegen,,61.0206720,11.7369830,,,0,
761017096,,Løvhaugvegen,,61.0390010,11.7019260,,,0,
